%time,field.header.seq,field.header.stamp,field.header.frame_id,field.child_frame_id,field.pose.pose.position.x,field.pose.pose.position.y,field.pose.pose.position.z,field.pose.pose.orientation.x,field.pose.pose.orientation.y,field.pose.pose.orientation.z,field.pose.pose.orientation.w,field.pose.covariance0,field.pose.covariance1,field.pose.covariance2,field.pose.covariance3,field.pose.covariance4,field.pose.covariance5,field.pose.covariance6,field.pose.covariance7,field.pose.covariance8,field.pose.covariance9,field.pose.covariance10,field.pose.covariance11,field.pose.covariance12,field.pose.covariance13,field.pose.covariance14,field.pose.covariance15,field.pose.covariance16,field.pose.covariance17,field.pose.covariance18,field.pose.covariance19,field.pose.covariance20,field.pose.covariance21,field.pose.covariance22,field.pose.covariance23,field.pose.covariance24,field.pose.covariance25,field.pose.covariance26,field.pose.covariance27,field.pose.covariance28,field.pose.covariance29,field.pose.covariance30,field.pose.covariance31,field.pose.covariance32,field.pose.covariance33,field.pose.covariance34,field.pose.covariance35,field.twist.twist.linear.x,field.twist.twist.linear.y,field.twist.twist.linear.z,field.twist.twist.angular.x,field.twist.twist.angular.y,field.twist.twist.angular.z,field.twist.covariance0,field.twist.covariance1,field.twist.covariance2,field.twist.covariance3,field.twist.covariance4,field.twist.covariance5,field.twist.covariance6,field.twist.covariance7,field.twist.covariance8,field.twist.covariance9,field.twist.covariance10,field.twist.covariance11,field.twist.covariance12,field.twist.covariance13,field.twist.covariance14,field.twist.covariance15,field.twist.covariance16,field.twist.covariance17,field.twist.covariance18,field.twist.covariance19,field.twist.covariance20,field.twist.covariance21,field.twist.covariance22,field.twist.covariance23,field.twist.covariance24,field.twist.covariance25,field.twist.covariance26,field.twist.covariance27,field.twist.covariance28,field.twist.covariance29,field.twist.covariance30,field.twist.covariance31,field.twist.covariance32,field.twist.covariance33,field.twist.covariance34,field.twist.covariance35
1403638518177829500,7749,1403638518177829500,world,odom,59220337.67949817,71227474.74814591,-54779276.17817664,-0.2837940683733288,0.7216497455777314,0.6282576033436879,0.06304724660566328,210485129372.27042,263842392466.3144,-12767051640.164167,158905.80828634638,2117485.5402374687,-1183631.5756072153,263842392466.3144,335632276455.0291,29799237406.725956,551305.5446370167,2666846.7578545706,-1506248.6301270952,-12767051640.164167,29799237406.725956,577094453779.9633,4390096.027619377,-80695.42195099998,-135852.18396039883,158905.80828634638,551305.5446370167,4390096.027619377,34.22652846253204,3.6757156193173897,0.9604523918104773,2117485.5402374687,2666846.7578545706,-80695.42195099998,3.6757156193173897,27.840353671089456,1.3935697479750155,-1183631.5756072153,-1506248.6301270952,-135852.18396039883,0.9604523918104773,1.3935697479750155,34.402139166288634,154909.56032196034,208380.73784292716,-123671.25790668787,0.0,0.0,0.0,26959878.578374278,34569350.61506776,7073851.539080193,0.0,0.0,0.0,34569350.61506776,45001732.39010019,16230111.526821699,0.0,0.0,0.0,7073851.539080193,16230111.526821699,90021147.75227834,0.0,0.0,0.0,0.0,0.0,0.0,0.0,0.0,0.0,0.0,0.0,0.0,0.0,0.0,0.0,0.0,0.0,0.0,0.0,0.0,0.0
1403638518227829500,7750,1403638518227829500,world,odom,59228083.141822375,71237893.76648758,-54785459.752436645,-0.28377518883454,0.7216333799747031,0.6282712262757769,0.06318364774321328,25.558568621784072,-30.907339686444235,-1.1461589461068164e-10,0.0008003194416502566,-0.0015565930776081408,0.0003620153198936252,-30.907339686444235,37.37701447460257,-1.2062934943922358e-10,-0.0009678553379002842,0.0018823895124830165,-0.00043784627875117837,-1.1461589461068164e-10,-1.2062934943922358e-10,0.0006251351894889873,3.886723718021388e-08,4.072697954758268e-08,8.918971633445334e-08,0.0008003194416502566,-0.0009678553379002842,3.886723718021388e-08,2.624999908130548e-05,-2.2296285917553985e-14,-1.3099771246428064e-14,-0.0015565930776081408,0.0018823895124830165,4.072697954758268e-08,-2.2296285917553985e-14,2.6249999193689084e-05,7.380465828809819e-14,0.0003620153198936252,-0.00043784627875117837,8.918971633445334e-08,-1.3099771246428064e-14,7.380465828809819e-14,2.6249999123343862e-05,154909.2283969143,208380.39328961502,-123671.94852153957,0.0,0.0,0.0,0.2507160372950966,0.0001433644612970509,-4.0054464292820037e-07,0.0,0.0,0.0,0.0001433644612970509,0.25018770839172166,-4.175206068174751e-07,0.0,0.0,0.0,-4.0054464292820037e-07,-4.175206068174751e-07,0.25015154329343925,0.0,0.0,0.0,0.0,0.0,0.0,0.0,0.0,0.0,0.0,0.0,0.0,0.0,0.0,0.0,0.0,0.0,0.0,0.0,0.0,0.0
1403638518277829500,7751,1403638518277829500,world,odom,59235828.58752488,71248312.76755401,-54791643.361202724,-0.28371717017700177,0.721600228564003,0.6283262623955181,0.06327547287228594,25.548398024119987,-30.901572134761274,-6.9453233225213975e-09,0.0007999809813274783,-0.0015552813017154358,0.0003608774429622208,-30.901572134761274,37.38256123828367,-7.229489909276143e-09,-0.0009680913411847661,0.0018812617814448485,-0.00043745596360466005,-6.9453233225213975e-09,-7.229489909276143e-09,0.0025011689839460134,6.067054010764333e-07,6.342349489661918e-07,1.3864215902444285e-06,0.0007999809813274783,-0.0009680913411847661,6.067054010764333e-07,0.00010250016377087482,-2.5181459524308006e-14,-2.28624907463639e-14,-0.0015552813017154358,0.0018812617814448485,6.342349489661918e-07,-2.5181459524308006e-14,0.00010250016542188685,4.4997637428094386e-13,0.0003608774429622208,-0.00043745596360466005,1.3864215902444285e-06,-2.28624907463639e-14,4.4997637428094386e-13,0.00010250016390491787,154908.89519148308,208380.04745765912,-123672.63764477526,0.0,0.0,0.0,0.2509364893426775,0.00013019789102954125,-6.152431570935494e-06,0.0,0.0,0.0,0.00013019789102954125,0.25040009922816375,-6.3871470953159065e-06,0.0,0.0,0.0,-6.152431570935494e-06,-6.3871470953159065e-06,0.25037386171832415,0.0,0.0,0.0,0.0,0.0,0.0,0.0,0.0,0.0,0.0,0.0,0.0,0.0,0.0,0.0,0.0,0.0,0.0,0.0,0.0,0.0
1403638518327829500,7752,1403638518327829500,world,odom,59243574.05353058,71258731.80105774,-54797827.03395332,-0.2837141765175125,0.7215729887898112,0.6283462967142939,0.06340046764308122,25.539420832610997,-30.8957369747164,-7.7820543402218e-08,0.0007988106122178507,-0.0015507715250559651,0.0003573640418586157,-30.8957369747164,37.38928853189892,-8.083606522196107e-08,-0.0009685381710218082,0.0018760074957486948,-0.0004370288089787915,-7.7820543402218e-08,-8.083606522196107e-08,0.005629528042940472,3.0411860249300044e-06,3.1805356440221436e-06,6.953865704053702e-06,0.0007988106122178507,-0.0009685381710218082,3.0411860249300044e-06,0.0002287514586828881,6.068919653395818e-13,2.948911091462226e-13,-0.0015507715250559651,0.0018760074957486948,3.1805356440221436e-06,6.068919653395818e-13,0.00022875146805894357,4.307889678172016e-12,0.0003573640418586157,-0.0004370288089787915,6.953865704053702e-06,2.948911091462226e-13,4.307889678172016e-12,0.00022875146072642464,154908.56335060424,208379.70277044832,-123673.32907706218,0.0,0.0,0.0,0.2512550600686768,8.069819506644265e-05,-3.091852280173507e-05,0.0,0.0,0.0,8.069819506644265e-05,0.25070786710918985,-3.210878033675898e-05,0.0,0.0,0.0,-3.091852280173507e-05,-3.210878033675898e-05,0.25071896926371395,0.0,0.0,0.0,0.0,0.0,0.0,0.0,0.0,0.0,0.0,0.0,0.0,0.0,0.0,0.0,0.0,0.0,0.0,0.0,0.0,0.0
1403638518377829500,7753,1403638518377829500,world,odom,59251319.46597753,71269150.76762089,-54804010.71178151,-0.28362869618265435,0.7215573136909577,0.6283933596915574,0.06349481283044603,25.531639249078026,-30.889834679132,-4.344886377337162e-07,0.0007952026700317838,-0.0015396667217611845,0.000348211411481194,-30.889834679132,37.39719839212912,-4.510959984872991e-07,-0.0009687139247220567,0.0018622038770073476,-0.0004360188874771106,-4.344886377337162e-07,-4.510959984872991e-07,0.010012597723194959,9.572341714706122e-06,1.00062155559621e-05,2.1879036733586853e-05,0.0007952026700317838,-0.0009687139247220567,9.572341714706122e-06,0.0004050029258228023,1.1973704474008428e-12,5.080568165102489e-13,-0.0015396667217611845,0.0018622038770073476,1.00062155559621e-05,1.1973704474008428e-12,0.0004050029547413432,1.0772760779660976e-11,0.000348211411481194,-0.0004360188874771106,2.1879036733586853e-05,5.080568165102489e-13,1.0772760779660976e-11,0.0004050029301260432,154908.23000531364,208379.35753255954,-123674.01959183617,0.0,0.0,0.0,0.2517289370932582,-4.883811491082513e-05,-9.726041409003424e-05,0.0,0.0,0.0,-4.883811491082513e-05,0.25116535696689724,-0.0001008773348147331,0.0,0.0,0.0,-9.726041409003424e-05,-0.0001008773348147331,0.25127429889837727,0.0,0.0,0.0,0.0,0.0,0.0,0.0,0.0,0.0,0.0,0.0,0.0,0.0,0.0,0.0,0.0,0.0,0.0,0.0,0.0,0.0
1403638518427829500,7754,1403638518427829500,world,odom,59259064.86178658,71279569.7169449,-54810194.42411958,-0.2835796056104235,0.721532520780609,0.6284299177727598,0.06363385251530009,25.52505673159547,-30.883866357708243,-1.6499218993982423e-06,0.0007878911310884776,-0.0015166068628314352,0.00032937003973602746,-30.883866357708243,37.4062940941472,-1.7121729647704557e-06,-0.0009691109073129041,0.001832927213609788,-0.00043423811697293507,-1.6499218993982423e-06,-1.7121729647704557e-06,0.015654533023091853,2.330778140679425e-05,2.4362911504619614e-05,5.327198283490402e-05,0.0007878911310884776,-0.0009691109073129041,2.330778140679425e-05,0.000631255283149141,3.33056982947822e-12,1.1427335201605022e-12,-0.0015166068628314352,0.001832927213609788,2.4362911504619614e-05,3.33056982947822e-12,0.000631255356706387,2.3977267660750306e-11,0.00032937003973602746,-0.00043423811697293507,5.327198283490402e-05,1.1427335201605022e-12,2.3977267660750306e-11,0.0006312552913869973,154907.89742868915,208379.0130916577,-123674.71022718518,0.0,0.0,0.0,0.2524373357672214,-0.0003182849764785245,-0.0002366703089416977,0.0,0.0,0.0,-0.0003182849764785245,0.2518475637551994,-0.0002453250372086683,0.0,0.0,0.0,-0.0002366703089416977,-0.0002453250372086683,0.2521597324009306,0.0,0.0,0.0,0.0,0.0,0.0,0.0,0.0,0.0,0.0,0.0,0.0,0.0,0.0,0.0,0.0,0.0,0.0,0.0,0.0,0.0
1403638518477829500,7755,1403638518477829500,world,odom,59266810.24096039,71289988.64905041,-54816378.17101518,-0.2835127465392163,0.721535816208918,0.6284435945272234,0.06375921090496242,25.51967871742999,-30.877834354813952,-4.914466526651206e-06,0.0007744613030725442,-0.0014751588387752028,0.00029550146682386135,-30.877834354813952,37.416580797403675,-5.097344908494099e-06,-0.0009694247417809489,0.0017797930243182171,-0.00043134314105187476,-4.914466526651206e-06,-5.097344908494099e-06,0.022562210831374916,4.8237440353043125e-05,5.042397458049523e-05,0.00011025929035705119,0.0007744613030725442,-0.0009694247417809489,4.8237440353043125e-05,0.0009075087556434082,3.354107575801557e-12,1.1742749691752591e-12,-0.0014751588387752028,0.0017797930243182171,5.042397458049523e-05,3.354107575801557e-12,0.0009075089202223339,5.347054631785021e-11,0.00029550146682386135,-0.00043134314105187476,0.00011025929035705119,1.1742749691752591e-12,5.347054631785021e-11,0.000907508773507297,154907.56449521414,208378.66821948704,-123675.40147083721,0.0,0.0,0.0,0.2534840878045279,-0.0008061797845059331,-0.0004903071733138131,0.0,0.0,0.0,-0.0008061797845059331,0.2528526171345305,-0.000508126680428299,0.0,0.0,0.0,-0.0004903071733138131,-0.000508126680428299,0.2535324585954799,0.0,0.0,0.0,0.0,0.0,0.0,0.0,0.0,0.0,0.0,0.0,0.0,0.0,0.0,0.0,0.0,0.0,0.0,0.0,0.0,0.0
1403638518527829500,7756,1403638518527829500,world,odom,59274555.6034916,71300407.5639235,-54822561.952453434,-0.28348813927166683,0.7215238013531655,0.6284560407581866,0.06388179558927885,25.515513304644696,-30.871742750842348,-1.2370764220114781e-05,0.0007524396277357886,-0.0014072257179916677,0.0002399176441842356,-30.871742750842348,37.428066272818164,-1.2826498644309226e-05,-0.000969849931727548,0.0016923073747589007,-0.00042666713360269644,-1.2370764220114781e-05,-1.2826498644309226e-05,0.030746543540114073,8.923866204288872e-05,9.329904465658892e-05,0.00020400840960406506,0.0007524396277357886,-0.000969849931727548,8.923866204288872e-05,0.0012337635869594404,-4.421710629649977e-12,-1.2039482633136845e-12,-0.0014072257179916677,0.0016923073747589007,9.329904465658892e-05,-4.421710629649977e-12,0.0012337638958172254,9.849183153051021e-11,0.0002399176441842356,-0.00042666713360269644,0.00020400840960406506,-1.2039482633136845e-12,9.849183153051021e-11,0.0012337636183458122,154907.23197565082,208378.32394504047,-123676.0920186035,0.0,0.0,0.0,0.25499136060220906,-0.0016058675487187599,-0.0009063860956552581,0.0,0.0,0.0,-0.0016058675487187599,0.2542966291969709,-0.0009390913434803409,0.0,0.0,0.0,-0.0009063860956552581,-0.0009390913434803409,0.25557929914794164,0.0,0.0,0.0,0.0,0.0,0.0,0.0,0.0,0.0,0.0,0.0,0.0,0.0,0.0,0.0,0.0,0.0,0.0,0.0,0.0,0.0
1403638518577829500,7757,1403638518577829500,world,odom,59282300.986304976,71310826.5112593,-54828745.79792802,-0.2834191108136538,0.7215116083619592,0.6284897989982464,0.06399358701995686,25.512572500266153,-30.865598272276195,-2.7531324022692816e-05,0.0007185384607059332,-0.0013034540844808196,0.0001547341225423406,-30.865598272276195,37.44076200148807,-2.8535044617715905e-05,-0.000970188764711116,0.0015582947859167588,-0.0004194559032734299,-2.7531324022692816e-05,-2.8535044617715905e-05,0.040224103134683206,0.0001520992917121108,0.00015899199852884615,0.0003476998890650177,0.0007185384607059332,-0.000970188764711116,0.0001520992917121108,0.001610021906587555,-1.607922201225396e-11,-5.159840620872654e-12,-0.0013034540844808196,0.0015582947859167588,0.00015899199852884615,-1.607922201225396e-11,0.0016100224398706527,1.7474611956311218e-10,0.0001547341225423406,-0.0004194559032734299,0.0003476998890650177,-5.159840620872654e-12,1.7474611956311218e-10,0.0016100219631613633,154906.8986611573,208377.97939351457,-123676.78301467083,0.0,0.0,0.0,0.2571098472952442,-0.002832076953174459,-0.001545517948217646,0.0,0.0,0.0,-0.002832076953174459,0.2563242329128811,-0.0016004462794527385,0.0,0.0,0.0,-0.001545517948217646,-0.0016004462794527385,0.2585297936341934,0.0,0.0,0.0,0.0,0.0,0.0,0.0,0.0,0.0,0.0,0.0,0.0,0.0,0.0,0.0,0.0,0.0,0.0,0.0,0.0,0.0
1403638518627829500,7758,1403638518627829500,world,odom,59290046.31555333,71321245.3917008,-54834929.64842777,-0.2833905825825877,0.7214885062750342,0.6285182741635121,0.06410064008293452,25.510873352625463,-30.85941130309201,-5.574390613846808e-05,0.0006693092766602029,-0.001152811863846753,3.1147649730042234e-05,-30.85941130309201,37.454684172147054,-5.776053276698456e-05,-0.0009705804084972995,0.001363476011361716,-0.0004091043057120995,-5.574390613846808e-05,-5.776053276698456e-05,0.05101878623671601,0.00024343147622926065,0.0002544586094770638,0.0005565165047432035,0.0006693092766602029,-0.0009705804084972995,0.00024343147622926065,0.0020362803735907075,-3.627110974443609e-11,-1.162201270070339e-11,-0.001152811863846753,0.001363476011361716,0.0002544586094770638,-3.627110974443609e-11,0.0020362812186991365,2.756018450173716e-10,3.1147649730042234e-05,-0.0004091043057120995,0.0005565165047432035,-1.162201270070339e-11,2.756018450173716e-10,0.0020362804612664787,154906.56629692344,208377.6356396226,-123677.47325772262,0.0,0.0,0.0,0.2600019145267128,-0.004608117949851649,-0.00247106794664216,0.0,0.0,0.0,-0.004608117949851649,0.2590877642401585,-0.002558203081153546,0.0,0.0,0.0,-0.00247106794664216,-0.002558203081153546,0.2626308084365851,0.0,0.0,0.0,0.0,0.0,0.0,0.0,0.0,0.0,0.0,0.0,0.0,0.0,0.0,0.0,0.0,0.0,0.0,0.0,0.0,0.0
1403638518677829500,7759,1403638518677829500,world,odom,59297791.62816141,71331664.25491989,-54841113.533489496,-0.28332548870048513,0.7214949749031829,0.6285308750626886,0.0641919600496641,25.510439327276575,-30.853196698557344,-0.00010480577391330348,0.0006005340920307589,-0.0009430067256860032,-0.00014108333389578251,-30.853196698557344,37.469855235048946,-0.00010857568210352077,-0.0009709235643822636,0.001091828306346891,-0.00039481503097534015,-0.00010480577391330348,-0.00010857568210352077,0.06316427980295092,0.0003708564639196842,0.00038759872045366814,0.0008476616586587705,0.0006005340920307589,-0.0009709235643822636,0.0003708564639196842,0.0025125408860586975,-6.369787149456466e-11,-2.0496851475459776e-11,-0.0009430067256860032,0.001091828306346891,0.00038759872045366814,-6.369787149456466e-11,0.0025125421510638402,4.1395147486751705e-10,-0.00014108333389578251,-0.00039481503097534015,0.0008476616586587705,-2.0496851475459776e-11,4.1395147486751705e-10,0.002512541017342319,154906.23312297402,208377.2906962022,-123678.16486907861,0.0,0.0,0.0,0.26387886002803485,-0.00709068519381068,-0.003768069920085974,0.0,0.0,0.0,-0.00709068519381068,0.2627856119530236,-0.0039009384478357126,0.0,0.0,0.0,-0.003768069920085974,-0.0039009384478357126,0.26819599377722325,0.0,0.0,0.0,0.0,0.0,0.0,0.0,0.0,0.0,0.0,0.0,0.0,0.0,0.0,0.0,0.0,0.0,0.0,0.0,0.0,0.0
1403638518727829500,7760,1403638518727829500,world,odom,59305536.924081236,71342083.10090934,-54847297.45310946,-0.28328600783027363,0.7214527264843213,0.62858441958595,0.06431662825210546,25.511301991926146,-30.846975171688463,-0.0001855818163393697,0.0005078059726291652,-0.0006600457011214623,-0.0003735034026768058,-30.846975171688463,37.48630516206381,-0.00019220650814511683,-0.0009713921222750425,0.0007251436068317206,-0.0003754173617843461,-0.0001855818163393697,-0.00019220650814511683,0.07670640016759948,0.0005427801465200464,0.0005671604834624521,0.0012405415882857465,0.0005078059726291652,-0.0009713921222750425,0.0005427801465200464,0.0030388036645398854,-9.725484513955237e-11,-3.0383260183764206e-11,-0.0006600457011214623,0.0007251436068317206,0.0005671604834624521,-9.725484513955237e-11,0.003038805494387678,5.843841625211046e-10,-0.0003735034026768058,-0.0003754173617843461,0.0012405415882857465,-3.0383260183764206e-11,5.843841625211046e-10,0.0030388038450728768,154905.89938065805,208376.94632284273,-123678.85586069441,0.0,0.0,0.0,0.2689386099699265,-0.010439245876356942,-0.005516749363159282,0.0,0.0,0.0,-0.010439245876356942,0.26761816019978,-0.005708050293326742,0.0,0.0,0.0,-0.005516749363159282,-0.005708050293326742,0.27554404056501414,0.0,0.0,0.0,0.0,0.0,0.0,0.0,0.0,0.0,0.0,0.0,0.0,0.0,0.0,0.0,0.0,0.0,0.0,0.0,0.0,0.0
1403638518777829500,7761,1403638518777829500,world,odom,59313282.20333396,71352501.92968813,-54853481.407311715,-0.2832126983583463,0.7214419112157842,0.6286232028010406,0.06438171425228457,25.513502876345335,-30.840774773298538,-0.00031272792687108607,0.00038598624747948943,-0.0002888239313297345,-0.0006785622220126797,-30.840774773298538,37.50407359139011,-0.0003238049407793825,-0.0009718494802918899,0.00024371191025313757,-0.00035016726301338545,-0.00031272792687108607,-0.0003238049407793825,0.0917056644912099,0.0007685321350971197,0.0008028222724422323,0.0017563790550911755,0.00038598624747948943,-0.0009718494802918899,0.0007685321350971197,0.0036150689116713967,-1.196759646930098e-10,-3.720484365762973e-11,-0.0002888239313297345,0.00024371191025313757,0.0008028222724422323,-1.196759646930098e-10,0.0036150714897037937,8.092624057007926e-10,-0.0006785622220126797,-0.00035016726301338545,0.0017563790550911755,-3.720484365762973e-11,8.092624057007926e-10,0.003615069159284772,154905.56613182314,208376.6020421097,-123679.54785228352,0.0,0.0,0.0,0.2754315134582729,-0.014831095120790073,-0.007817987546890892,0.0,0.0,0.0,-0.014831095120790073,0.2738117060193167,-0.00808714193048715,0.0,0.0,0.0,-0.007817987546890892,-0.00808714193048715,0.2850301913638066,0.0,0.0,0.0,0.0,0.0,0.0,0.0,0.0,0.0,0.0,0.0,0.0,0.0,0.0,0.0,0.0,0.0,0.0,0.0,0.0,0.0
1403638518827829500,7762,1403638518827829500,world,odom,59321027.50286104,71362920.79092404,-54859665.42555669,-0.2831606142630317,0.7214133851840747,0.628664911488609,0.06452304449152844,25.51709528528109,-30.834632186795517,-0.0005054089068687106,0.00022951499432896557,0.00018756251937037706,-0.0010700392434850395,-30.834632186795517,37.52321142431878,-0.0005232022169740553,-0.0009724118167180114,-0.000374442490506787,-0.0003177477929793122,-0.0005054089068687106,-0.0005232022169740553,0.10824056629794587,0.0010584551539117822,0.001105441582182981,0.002418345513428884,0.00022951499432896557,-0.0009724118167180114,0.0010584551539117822,0.004241339972003094,-1.3970923018912876e-10,-4.29720441985715e-11,0.00018756251937037706,-0.000374442490506787,0.001105441582182981,-1.3970923018912876e-10,0.004241343501078821,1.0748960105950823e-09,-0.0010700392434850395,-0.0003177477929793122,0.002418345513428884,-4.29720441985715e-11,1.0748960105950823e-09,0.004241340293482645,154905.23313719645,208376.25781399448,-123680.2386430873,0.0,0.0,0.0,0.2836024800093961,-0.020464031073323743,-0.010761117442129667,0.0,0.0,0.0,-0.020464031073323743,0.28159845453361076,-0.011130483563621148,0.0,0.0,0.0,-0.010761117442129667,-0.011130483563621148,0.29705027973493875,0.0,0.0,0.0,0.0,0.0,0.0,0.0,0.0,0.0,0.0,0.0,0.0,0.0,0.0,0.0,0.0,0.0,0.0,0.0,0.0,0.0
1403638518877829500,7763,1403638518877829500,world,odom,59328772.74881708,71373339.58526994,-54865849.448887125,-0.28309764633717616,0.7213985521661939,0.6286956792620059,0.06466524915405002,25.52214659207351,-30.828594551247125,-0.000788262648771306,3.2354715644559985e-05,0.0007871329854931095,-0.0015629470306353689,-30.828594551247125,37.543782672774,-0.0008158871513901265,-0.0009730725138424267,-0.0011527980315801266,-0.0002770017760845664,-0.000788262648771306,-0.0008158871513901265,0.12641032871495525,0.0014236958271892656,0.0014865552240176947,0.003251634448876847,3.2354715644559985e-05,-0.0009730725138424267,0.0014236958271892656,0.004917610964642197,-1.6074025662492836e-10,-4.9282065313716745e-11,0.0007871329854931095,-0.0011527980315801266,0.0014865552240176947,-1.6074025662492836e-10,0.004917615776697753,1.4509885728147614e-09,-0.0015629470306353689,-0.0002770017760845664,0.003251634448876847,-4.9282065313716745e-11,1.4509885728147614e-09,0.004917611395810432,154904.9003160367,208375.9135303944,-123680.9306650867,0.0,0.0,0.0,0.29375914063764674,-0.027554030740439224,-0.014478906126813771,0.0,0.0,0.0,-0.027554030740439224,0.29126887587442496,-0.014976076696773004,0.0,0.0,0.0,-0.014478906126813771,-0.014976076696773004,0.31203658930857797,0.0,0.0,0.0,0.0,0.0,0.0,0.0,0.0,0.0,0.0,0.0,0.0,0.0,0.0,0.0,0.0,0.0,0.0,0.0,0.0,0.0
1403638518927829500,7764,1403638518927829500,world,odom,59336517.978116974,71383758.36240627,-54872033.506827615,-0.2830816811508257,0.7213773864500518,0.628715900465713,0.06477456767051852,25.528740707118757,-30.822721072105796,-0.001192440395189336,-0.0002117802765077177,0.0015295720995542965,-0.002173638985389776,-30.822721072105796,37.56586730524864,-0.0012340502557285416,-0.0009738579045683292,-0.002117111046037302,-0.00022677853200784025,-0.001192440395189336,-0.0012340502557285416,0.146339298047498,0.0018757320323109995,0.0019586293927576345,0.004283884447686896,-0.0002117802765077177,-0.0009738579045683292,0.0018757320323109995,0.005643885033101686,-1.937461736506672e-10,-5.916988130284447e-11,0.0015295720995542965,-0.002117111046037302,0.0019586293927576345,-1.937461736506672e-10,0.005643891439862902,1.9223727328165084e-09,-0.002173638985389776,-0.00022677853200784025,0.004283884447686896,-5.916988130284447e-11,1.9223727328165084e-09,0.00564388560300813,154904.5670641317,208375.5693159476,-123681.62259782478,0.0,0.0,0.0,0.30619399856294344,-0.03633933258155808,-0.019086683892145136,0.0,0.0,0.0,-0.03633933258155808,0.3031165744324928,-0.01973855910542406,0.0,0.0,0.0,-0.019086683892145136,-0.01973855910542406,0.33046532679640533,0.0,0.0,0.0,0.0,0.0,0.0,0.0,0.0,0.0,0.0,0.0,0.0,0.0,0.0,0.0,0.0,0.0,0.0,0.0,0.0,0.0
1403638518977829500,7765,1403638518977829500,world,odom,59344263.19075465,71394177.12233426,-54878217.59935892,-0.283024865474486,0.7213497812823958,0.6287616527269282,0.06488607421543342,25.536980353678114,-30.81708510231008,-0.001756370176619032,-0.0005101009242843363,0.002436069991826496,-0.00291933214348181,-30.81708510231008,37.589563152835574,-0.0018173999331502055,-0.0009749234980669086,-0.003294754857750783,-0.00016556696813769953,-0.001756370176619032,-0.0018173999331502055,0.16818032708557298,0.002428282000722967,0.0025347771596073215,0.005544255656246973,-0.0005101009242843363,-0.0009749234980669086,0.002428282000722967,0.006420162409912081,-2.2250198652287674e-10,-6.813563313543089e-11,0.002436069991826496,-0.003294754857750783,0.0025347771596073215,-2.2250198652287674e-10,0.006420170723487814,2.518532147313661e-09,-0.00291933214348181,-0.00016556696813769953,0.005544255656246973,-6.813563313543089e-11,2.518532147313661e-09,0.006420163165622797,154904.23383361835,208375.22517332598,-123682.31453689466,0.0,0.0,0.0,0.3212366347606059,-0.04706461204659474,-0.02471467176719548,0.0,0.0,0.0,-0.04706461204659474,0.31744726698725406,-0.025554561734785597,0.0,0.0,0.0,-0.02471467176719548,-0.025554561734785597,0.35282639593541526,0.0,0.0,0.0,0.0,0.0,0.0,0.0,0.0,0.0,0.0,0.0,0.0,0.0,0.0,0.0,0.0,0.0,0.0,0.0,0.0,0.0
1403638519027829500,7766,1403638519027829500,world,odom,59352008.38670751,71404595.86504966,-54884401.72646957,-0.28300909521179257,0.7213423460485121,0.6287672526679721,0.06498318087783786,25.546989974703035,-30.81177628036103,-0.0025270175227102157,-0.0008698331199639709,0.003528852091500816,-0.00381888213587482,-30.81177628036103,37.6149888299208,-0.0026144162877814506,-0.0009758885762768085,-0.004715303378862836,-9.161026690803132e-05,-0.0025270175227102157,-0.0026144162877814506,0.1921193118524609,0.003094051636786193,0.003230167735951485,0.007064381293029461,-0.0008698331199639709,-0.0009758885762768085,0.003094051636786193,0.0072464432828656215,-2.451195973716382e-10,-7.523736184849267e-11,0.003528852091500816,-0.004715303378862836,0.003230167735951485,-2.451195973716382e-10,0.00724645388134045,3.2421902635174146e-09,-0.00381888213587482,-9.161026690803132e-05,0.007064381293029461,-7.523736184849267e-11,3.2421902635174146e-09,0.007246444267389542,154903.89993661153,208374.8807809982,-123683.00571204054,0.0,0.0,0.0,0.3392343204623766,-0.06001644100713585,-0.03149503959579579,0.0,0.0,0.0,-0.06001644100713585,0.3346057714327769,-0.03255636125984078,0.0,0.0,0.0,-0.03149503959579579,-0.03255636125984078,0.3796927536463767,0.0,0.0,0.0,0.0,0.0,0.0,0.0,0.0,0.0,0.0,0.0,0.0,0.0,0.0,0.0,0.0,0.0,0.0,0.0,0.0,0.0
1403638519077829500,7767,1403638519077829500,world,odom,59359753.6029195,71415014.64023444,-54890585.91764155,-0.2829445536265008,0.7213321546230336,0.6287991849716605,0.06506832761772552,25.558918676204538,-30.80690255007498,-0.0035609344090356157,-0.0012990279401940087,0.004832371955608471,-0.004891621523860102,-30.80690255007498,37.64228639998693,-0.0036835452368037527,-0.0009773528941197352,-0.006409812455042531,-3.5400463564920126e-06,-0.0035609344090356157,-0.0036835452368037527,0.21837918934730896,0.003889116194793101,0.0040590476149242535,0.008877482597619212,-0.0012990279401940087,-0.0009773528941197352,0.003889116194793101,0.008122732298229754,-2.9169793135379633e-10,-8.989546381343196e-11,0.004832371955608471,-0.006409812455042531,0.0040590476149242535,-2.9169793135379633e-10,0.008122745477408514,4.054034827310449e-09,-0.004891621523860102,-3.5400463564920126e-06,0.008877482597619212,-8.989546381343196e-11,4.054034827310449e-09,0.008122733537323576,154903.5664938164,208374.53707605033,-123683.69749002074,0.0,0.0,0.0,0.3605473340494555,-0.0754388414107538,-0.03959152105204792,0.0,0.0,0.0,-0.0754388414107538,0.35493621063322556,-0.04091302344727772,0.0,0.0,0.0,-0.03959152105204792,-0.04091302344727772,0.4115527244611561,0.0,0.0,0.0,0.0,0.0,0.0,0.0,0.0,0.0,0.0,0.0,0.0,0.0,0.0,0.0,0.0,0.0,0.0,0.0,0.0,0.0
1403638519127829500,7768,1403638519127829500,world,odom,59367498.76552298,71425433.34855904,-54896770.113896675,-0.282902997531273,0.7213049129409873,0.6288368765171365,0.06518664960854377,25.572942702312783,-30.80259257477773,-0.004925606712217532,-0.0018067297873361754,0.006371612081042075,-0.006158418884096061,-30.80259257477773,37.67162404801138,-0.00509433326527179,-0.0009783067582300525,-0.008411622083982984,0.0001003660500642383,-0.004925606712217532,-0.00509433326527179,0.24722412222179174,0.004828171205958152,0.005038172063500091,0.011018909645257886,-0.0018067297873361754,-0.0009783067582300525,0.004828171205958152,0.009049021212989299,-3.478190996256568e-10,-1.0759826438395218e-10,0.006371612081042075,-0.008411622083982984,0.005038172063500091,-3.478190996256568e-10,0.009049037388130936,4.999570417940737e-09,-0.006158418884096061,0.0001003660500642383,0.011018909645257886,-1.0759826438395218e-10,4.999570417940737e-09,0.00904902274935076,154903.23258625664,208374.1932161134,-123684.38847487382,0.0,0.0,0.0,0.3855714528955951,-0.09367155083522712,-0.04914104998237688,0.0,0.0,0.0,-0.09367155083522712,0.3788231265326034,-0.05076319667003323,0.0,0.0,0.0,-0.04914104998237688,-0.05076319667003323,0.449085862099553,0.0,0.0,0.0,0.0,0.0,0.0,0.0,0.0,0.0,0.0,0.0,0.0,0.0,0.0,0.0,0.0,0.0,0.0,0.0,0.0,0.0
1403638519177829500,7769,1403638519177829500,world,odom,59375243.91145462,71435852.0396969,-54902954.34472666,-0.28288134514173807,0.7212675226750965,0.6288800124739261,0.06527813734876685,25.589269846589744,-30.7989983065909,-0.006700772378982287,-0.0024010923090446532,0.008173793374872935,-0.007641356914908009,-30.7989983065909,37.70319986813288,-0.006929121590575956,-0.0009791680222028727,-0.01075570377020665,0.0002214889883735499,-0.006700772378982287,-0.006929121590575956,0.27896591695439277,0.005927092850457057,0.00618402744885203,0.013526665410139943,-0.0024010923090446532,-0.0009791680222028727,0.005927092850457057,0.010025314236245178,-3.670758714944779e-10,-1.1352227637795853e-10,0.008173793374872935,-0.01075570377020665,0.00618402744885203,-3.670758714944779e-10,0.010025333889666492,6.141372878014704e-09,-0.007641356914908009,0.0002214889883735499,0.013526665410139943,-1.1352227637795853e-10,6.141372878014704e-09,0.01002531614714669,154902.89927125393,208373.84941069753,-123685.08051182808,0.0,0.0,0.0,0.41476998571692775,-0.11499842764598944,-0.060346082901004613,0.0,0.0,0.0,-0.11499842764598944,0.4066636345294558,-0.062328807649371,0.0,0.0,0.0,-0.060346082901004613,-0.062328807649371,0.49286166982633045,0.0,0.0,0.0,0.0,0.0,0.0,0.0,0.0,0.0,0.0,0.0,0.0,0.0,0.0,0.0,0.0,0.0,0.0,0.0,0.0,0.0
1403638519227829500,7770,1403638519227829500,world,odom,59382989.04067465,71446270.71363874,-54909138.610139035,-0.28284449199927175,0.7212535850902483,0.6289052580531539,0.06534857101141495,25.608142559192913,-30.796298208305643,-0.008980142358327062,-0.0030910829232605247,0.010266893776821382,-0.009364469920100996,-30.796298208305643,37.73724569617805,-0.009284395579952271,-0.000980526974136703,-0.013479336880406766,0.00036265587658501977,-0.008980142358327062,-0.009284395579952271,0.3139697743617354,0.0072037568319513225,0.007515371944654514,0.01644007651540039,-0.0030910829232605247,-0.000980526974136703,0.0072037568319513225,0.011051611668261213,-3.3258274976675947e-10,-1.0158286978054995e-10,0.010266893776821382,-0.013479336880406766,0.007515371944654514,-3.3258274976675947e-10,0.011051635257280883,7.435061384628509e-09,-0.009364469920100996,0.00036265587658501977,0.01644007651540039,-1.0158286978054995e-10,7.435061384628509e-09,0.011051614003328344,154902.56542898362,208373.50564367467,-123685.77214223344,0.0,0.0,0.0,0.44853928203540744,-0.13978886163175813,-0.07336002051385984,0.0,0.0,0.0,-0.13978886163175813,0.43890089361334433,-0.07574928448749482,0.0,0.0,0.0,-0.07336002051385984,-0.07574928448749482,0.5436171442052721,0.0,0.0,0.0,0.0,0.0,0.0,0.0,0.0,0.0,0.0,0.0,0.0,0.0,0.0,0.0,0.0,0.0,0.0,0.0,0.0,0.0
1403638519277829500,7771,1403638519277829500,world,odom,59390734.15322629,71456689.37038906,-54915322.910144545,-0.28282059928347475,0.7212270411487024,0.6289362857963688,0.06544625386905399,25.62984136802962,-30.794698541067337,-0.011872123919053148,-0.0038881246214378545,0.012680735420977734,-0.011351806610867914,-30.794698541067337,37.77402838274223,-0.01227225268548043,-0.000981205284901236,-0.016621187183481198,0.0005252148598910336,-0.011872123919053148,-0.01227225268548043,0.3526565955298699,0.00867654545541853,0.009051173722327565,0.019800172262632913,-0.0038881246214378545,-0.000981205284901236,0.00867654545541853,0.01212791373276004,-2.9852267707752423e-10,-8.899654034406585e-11,0.012680735420977734,-0.016621187183481198,0.009051173722327565,-2.9852267707752423e-10,0.01212794170943111,8.926776393412086e-09,-0.011351806610867914,0.0005252148598910336,0.019800172262632913,-8.899654034406585e-11,8.926776393412086e-09,0.012127916574584644,154902.23259297604,208373.16224003246,-123686.4637934749,0.0,0.0,0.0,0.4873257703715929,-0.1683209651746552,-0.08834896840630985,0.0,0.0,0.0,-0.1683209651746552,0.4758749064323861,-0.09122012342934278,0.0,0.0,0.0,-0.08834896840630985,-0.09122012342934278,0.6019115897626793,0.0,0.0,0.0,0.0,0.0,0.0,0.0,0.0,0.0,0.0,0.0,0.0,0.0,0.0,0.0,0.0,0.0,0.0,0.0,0.0,0.0
1403638519327829500,7772,1403638519327829500,world,odom,59398479.28606259,71467108.05965663,-54921507.274220675,-0.2827709311079002,0.7212248666360005,0.6289532322511991,0.06552193454884993,25.654687740733266,-30.79443679380114,-0.01550148976497975,-0.004800586185783108,0.015446091224134796,-0.013629752509624938,-30.79443679380114,37.81385469868404,-0.01602139050845486,-0.0009832958873972981,-0.02022154895347055,0.0007121559305293046,-0.01550148976497975,-0.01602139050845486,0.3955102962055645,0.010364978743346031,0.010811170988230746,0.023649850601605092,-0.004800586185783108,-0.0009832958873972981,0.010364978743346031,0.013254226181000377,-2.4793368574256507e-10,-7.145446650716862e-11,0.015446091224134796,-0.02022154895347055,0.010811170988230746,-2.4793368574256507e-10,0.013254259038528608,1.0546529122703847e-08,-0.013629752509624938,0.0007121559305293046,0.023649850601605092,-7.145446650716862e-11,1.0546529122703847e-08,0.013254229559175204,154901.89913488936,208372.81892676637,-123687.15544705532,0.0,0.0,0.0,0.5316330289559078,-0.20104018053181533,-0.10554260510896821,0.0,0.0,0.0,-0.20104018053181533,0.5181801778933195,-0.1089461205406205,0.0,0.0,0.0,-0.10554260510896821,-0.1089461205406205,0.6686326517702504,0.0,0.0,0.0,0.0,0.0,0.0,0.0,0.0,0.0,0.0,0.0,0.0,0.0,0.0,0.0,0.0,0.0,0.0,0.0,0.0,0.0
1403638519377829500,7773,1403638519377829500,world,odom,59406224.36526932,71477526.68209232,-54927691.64340414,-0.2827190248702378,0.7211870592390602,0.6290043732394902,0.06567097538589066,25.68304944784555,-30.795786477825402,-0.020012422250749215,-0.005844057793010005,0.018595812621783007,-0.01622319935488296,-30.795786477825402,37.85707769850734,-0.02067980074429658,-0.0009830530375575484,-0.024323937959644444,0.0009240885894768989,-0.020012422250749215,-0.02067980074429658,0.4430868736396976,0.012290667743234715,0.012815767470445986,0.028034434250410356,-0.005844057793010005,-0.0009830530375575484,0.012290667743234715,0.01443053815193183,-1.882538242520822e-10,-5.0548778524992595e-11,0.018595812621783007,-0.024323937959644444,0.012815767470445986,-1.882538242520822e-10,0.014430576681398721,1.2450392326085816e-08,-0.01622319935488296,0.0009240885894768989,0.028034434250410356,-5.0548778524992595e-11,1.2450392326085816e-08,0.014430542167887504,154901.56471019486,208372.47601357105,-123687.84743785425,0.0,0.0,0.0,0.5819505545885013,-0.23834480896234622,-0.1251791956758923,0.0,0.0,0.0,-0.23834480896234622,0.5663820452580581,-0.12914573621781442,0.0,0.0,0.0,-0.1251791956758923,-0.12914573621781442,0.7445742662308523,0.0,0.0,0.0,0.0,0.0,0.0,0.0,0.0,0.0,0.0,0.0,0.0,0.0,0.0,0.0,0.0,0.0,0.0,0.0,0.0,0.0
1403638519427829500,7774,1403638519427829500,world,odom,59413969.42778169,71487945.28739406,-54933876.04715608,-0.2827047965998988,0.7211662862421407,0.6290245144986338,0.06576736065014757,25.715343216602133,-30.799057997212422,-0.025567752660600837,-0.007024194731920928,0.022163071681627268,-0.01916262850311506,-30.799057997212422,37.904096668144135,-0.02641494630600466,-0.00098248154800699,-0.028972526280003356,0.001164892858606692,-0.025567752660600837,-0.02641494630600466,0.4960169485760667,0.014468386829852846,0.015087479111641624,0.03300352762194868,-0.007024194731920928,-0.00098248154800699,0.014468386829852846,0.015656855226203383,-1.0287594176944613e-10,-2.019945656476098e-11,0.022163071681627268,-0.028972526280003356,0.015087479111641624,-1.0287594176944613e-10,0.015656900135196914,1.4629275505145889e-08,-0.01916262850311506,0.001164892858606692,0.03300352762194868,-2.019945656476098e-11,1.4629275505145889e-08,0.01565685998463005,154901.23068834443,208372.13299544257,-123688.53892143852,0.0,0.0,0.0,0.6388109107962447,-0.28059369246326105,-0.14738850727992456,0.0,0.0,0.0,-0.28059369246326105,0.6208027675250272,-0.15200393129090212,0.0,0.0,0.0,-0.14738850727992456,-0.15200393129090212,0.8304603942304672,0.0,0.0,0.0,0.0,0.0,0.0,0.0,0.0,0.0,0.0,0.0,0.0,0.0,0.0,0.0,0.0,0.0,0.0,0.0,0.0,0.0
1403638519477829500,7775,1403638519477829500,world,odom,59421714.47360646,71498363.87553795,-54940060.48550102,-0.28265590291349146,0.7211492405907289,0.6290544059421186,0.06587843128355686,25.75204354765852,-30.80460384798834,-0.032353193553068024,-0.008355829964789459,0.026184163917564885,-0.022476113491360986,-30.80460384798834,37.95536409918581,-0.03341844523045677,-0.0009824364881457085,-0.034213869161961445,0.0014365770850907076,-0.032353193553068024,-0.03341844523045677,0.5550157789202522,0.016926719095168213,0.01764815942683101,0.038604265062164016,-0.008355829964789459,-0.0009824364881457085,0.016926719095168213,0.016933177601031923,3.991575295206828e-11,3.114421358309355e-11,0.026184163917564885,-0.034213869161961445,0.01764815942683101,3.991575295206828e-11,0.016933229635697634,1.7107918770900617e-08,-0.022476113491360986,0.0014365770850907076,0.038604265062164016,3.114421358309355e-11,1.7107918770900617e-08,0.01693318321791788,154900.89768878793,208371.78970437747,-123689.23128018364,0.0,0.0,0.0,0.7028909176785559,-0.32816615098662966,-0.1724516969648267,0.0,0.0,0.0,-0.32816615098662966,0.6819604278049659,-0.17784714838709534,0.0,0.0,0.0,-0.1724516969648267,-0.17784714838709534,0.9270538754523632,0.0,0.0,0.0,0.0,0.0,0.0,0.0,0.0,0.0,0.0,0.0,0.0,0.0,0.0,0.0,0.0,0.0,0.0,0.0,0.0,0.0
1403638519527829500,7776,1403638519527829500,world,odom,59429459.502750926,71508782.4465041,-54946244.9584807,-0.2825986532391972,0.7211335436852724,0.629090003985658,0.06595589620828624,25.79368573507762,-30.81282147644468,-0.0405789853252263,-0.009848297253562595,0.030697330522311234,-0.026194815266079023,-30.81282147644468,38.01139009044382,-0.04190732039296657,-0.0009849078592343197,-0.040096614699042424,0.001740229797739899,-0.0405789853252263,-0.04190732039296657,0.6208889308418293,0.019685922441407974,0.020519714180076067,0.04489023274708151,-0.009848297253562595,-0.0009849078592343197,0.019685922441407974,0.018259505509220283,1.858102146106688e-10,8.087809412077117e-11,0.030697330522311234,-0.040096614699042424,0.020519714180076067,1.858102146106688e-10,0.018259565519467114,1.9782676769869915e-08,-0.026194815266079023,0.001740229797739899,0.04489023274708151,8.087809412077117e-11,1.9782676769869915e-08,0.018259512019482758,154900.56329956392,208371.44624740593,-123689.92395606762,0.0,0.0,0.0,0.7747321555197821,-0.38167502564756206,-0.20066742094598491,0.0,0.0,0.0,-0.38167502564756206,0.7507229939386664,-0.20688455167145575,0.0,0.0,0.0,-0.20066742094598491,-0.20688455167145575,1.035570198450669,0.0,0.0,0.0,0.0,0.0,0.0,0.0,0.0,0.0,0.0,0.0,0.0,0.0,0.0,0.0,0.0,0.0,0.0,0.0,0.0,0.0
1403638519577829500,7777,1403638519577829500,world,odom,59437204.55211998,71519201.04999721,-54952429.49558255,-0.28257548532301613,0.7211196467866463,0.6291028686067671,0.0660842706209363,25.840865444477476,-30.82415668773302,-0.05048060253177828,-0.011520697993746587,0.035736712059136366,-0.030352593828514525,-30.82415668773302,38.07274756451026,-0.052123085400027296,-0.0009828201060154162,-0.04667151365990505,0.0020820163489504526,-0.05048060253177828,-0.052123085400027296,0.6945391154831775,0.02276780916549738,0.023733650205599185,0.05191266099160054,-0.011520697993746587,-0.0009828201060154162,0.02276780916549738,0.01963584576272166,3.2684330792922793e-10,1.313752202599464e-10,0.035736712059136366,-0.04667151365990505,0.023733650205599185,3.2684330792922793e-10,0.019635914583580705,2.2846073110638433e-08,-0.030352593828514525,0.0020820163489504526,0.05191266099160054,1.313752202599464e-10,2.2846073110638433e-08,0.019635853335770472,154900.2297442369,208371.10382349382,-123690.61638066209,0.0,0.0,0.0,0.8546732245260332,-0.4412998068736921,-0.23214191312503826,0.0,0.0,0.0,-0.4412998068736921,0.8272826370641507,-0.23926297607525265,0.0,0.0,0.0,-0.23214191312503826,-0.23926297607525265,1.1563726159407828,0.0,0.0,0.0,0.0,0.0,0.0,0.0,0.0,0.0,0.0,0.0,0.0,0.0,0.0,0.0,0.0,0.0,0.0,0.0,0.0,0.0
1403638519627829500,7778,1403638519627829500,world,odom,59444949.5478503,71529619.58667241,-54958614.03779863,-0.28254001980616145,0.7210927394592151,0.6291393897007981,0.06618176965030348,25.894245518242474,-30.839106799942904,-0.062319422875592785,-0.013380516558743852,0.041347096540885184,-0.03497787411071142,-30.839106799942904,38.14007228833916,-0.06433426585240135,-0.0009822990998515574,-0.053990582661912936,0.0024591664615064178,-0.062319422875592785,-0.06433426585240135,0.7769717589587909,0.026198484949101528,0.02730579935931686,0.059730533365843254,-0.013380516558743852,-0.0009822990998515574,0.026198484949101528,0.021062185296867465,4.296004100050507e-10,1.682115364842563e-10,0.041347096540885184,-0.053990582661912936,0.02730579935931686,4.296004100050507e-10,0.02106226399549685,2.6278757096540982e-08,-0.03497787411071142,0.0024591664615064178,0.059730533365843254,1.682115364842563e-10,2.6278757096540982e-08,0.021062194061873842,154899.8955850584,208370.7607754628,-123691.30806640067,0.0,0.0,0.0,0.9435636449423804,-0.5077777077084149,-0.26713712122216826,0.0,0.0,0.0,-0.5077777077084149,0.9124197025098013,-0.27525851776640714,0.0,0.0,0.0,-0.26713712122216826,-0.27525851776640714,1.2909372057142872,0.0,0.0,0.0,0.0,0.0,0.0,0.0,0.0,0.0,0.0,0.0,0.0,0.0,0.0,0.0,0.0,0.0,0.0,0.0,0.0,0.0
1403638519677829500,7779,1403638519677829500,world,odom,59452694.526926205,71540038.10621387,-54964798.614623815,-0.2824831093952035,0.7210668134501671,0.6291790909357464,0.0663295935198401,25.95456536347194,-30.858222750156422,-0.0763862604870337,-0.01544905748341591,0.047565797110057755,-0.04010651897613386,-30.858222750156422,38.21406777491508,-0.07884136632564513,-0.0009795083491745344,-0.062106902776210025,0.00287870850918313,-0.0763862604870337,-0.07884136632564513,0.8693007173783106,0.0300091329848862,0.03126925667855362,0.0683948343366079,-0.01544905748341591,-0.0009795083491745344,0.0300091329848862,0.022538530584704283,5.553442460308739e-10,2.1329927002329328e-10,0.047565797110057755,-0.062106902776210025,0.03126925667855362,5.553442460308739e-10,0.022538620410837866,3.0163289191072574e-08,-0.04010651897613386,0.00287870850918313,0.0683948343366079,2.1329927002329328e-10,3.0163289191072574e-08,0.022538540704594906,154899.56256073853,208370.41825695254,-123692.00098104395,0.0,0.0,0.0,1.0420342175457178,-0.5813101238800086,-0.3060155101774351,0.0,0.0,0.0,-0.5813101238800086,1.0066197946853868,-0.315280908555299,0.0,0.0,0.0,-0.3060155101774351,-0.315280908555299,1.4396702711586071,0.0,0.0,0.0,0.0,0.0,0.0,0.0,0.0,0.0,0.0,0.0,0.0,0.0,0.0,0.0,0.0,0.0,0.0,0.0,0.0,0.0
1403638519727829500,7780,1403638519727829500,world,odom,59460439.48932431,71550456.60863127,-54970983.22610288,-0.2824439900063176,0.7210616226990534,0.6291885085852897,0.06646314350177807,26.02264564872097,-30.88211864271543,-0.09300813195880453,-0.01773335904006191,0.05443377003963132,-0.04577914710751338,-30.88211864271543,38.295522826646696,-0.09597996707249538,-0.0009768604558008322,-0.0710771837182009,0.0033460001080877376,-0.09300813195880453,-0.09597996707249538,0.9727663629735563,0.034216544633641835,0.03565358195972851,0.07796843005336371,-0.01773335904006191,-0.0009768604558008322,0.034216544633641835,0.024064881647130658,5.93018634477825e-10,2.272222219697985e-10,0.05443377003963132,-0.0710771837182009,0.03565358195972851,5.93018634477825e-10,0.024064984030149512,3.46022994963399e-08,-0.04577914710751338,0.0033460001080877376,0.07796843005336371,2.272222219697985e-10,3.46022994963399e-08,0.0240648933370639,154899.22881583055,208370.07559181083,-123692.69430310055,0.0,0.0,0.0,1.1508195764084743,-0.6626668955605475,-0.34908451478884284,0.0,0.0,0.0,-0.6626668955605475,1.110833868836394,-0.35957602801809474,0.0,0.0,0.0,-0.34908451478884284,-0.35957602801809474,1.6041048650158534,0.0,0.0,0.0,0.0,0.0,0.0,0.0,0.0,0.0,0.0,0.0,0.0,0.0,0.0,0.0,0.0,0.0,0.0,0.0,0.0,0.0
1403638519777829500,7781,1403638519777829500,world,odom,59468184.43504785,71560875.09392835,-54977167.872243814,-0.28237463482487263,0.7210561723322253,0.6292155431613894,0.06656096598786558,26.099391004740735,-30.91147184953232,-0.11254412110416076,-0.02024479215169033,0.0620009535914017,-0.05202677922758073,-30.91147184953232,38.385303952868526,-0.11611938711633318,-0.000981612126392352,-0.08095957290305658,0.003857519504439262,-0.11254412110416076,-0.11611938711633318,1.088736057196977,0.03885513187343162,0.04047636421581856,0.08851438628609332,-0.02024479215169033,-0.000981612126392352,0.03885513187343162,0.02564123889029443,5.553419895084782e-10,2.140059350366709e-10,0.0620009535914017,-0.08095957290305658,0.04047636421581856,5.553419895084782e-10,0.02564135514787401,3.951231553306435e-08,-0.05202677922758073,0.003857519504439262,0.08851438628609332,2.140059350366709e-10,3.951231553306435e-08,0.025641252318860087,154898.8951997403,208369.7330884319,-123693.38717714703,0.0,0.0,0.0,1.2704222310249564,-0.752241465642919,-0.3964706831065581,0.0,0.0,0.0,-0.752241465642919,1.225430668865304,-0.4083035577476165,0.0,0.0,0.0,-0.3964706831065581,-0.4083035577476165,1.785031634010168,0.0,0.0,0.0,0.0,0.0,0.0,0.0,0.0,0.0,0.0,0.0,0.0,0.0,0.0,0.0,0.0,0.0,0.0,0.0,0.0,0.0
1403638519827829500,7782,1403638519827829500,world,odom,59475929.40102251,71571293.61176956,-54983352.58252168,-0.2823230476475284,0.7210195404438461,0.6292701163012691,0.06666063152524035,26.18579837807342,-30.947030547494712,-0.13538859195508235,-0.023006523913282874,0.07031379878879843,-0.05888337443607078,-30.947030547494712,38.484364655601674,-0.1396656091886244,-0.0009838689526450797,-0.09181420085603412,0.004411858984178832,-0.13538859195508235,-0.1396656091886244,1.218719656703656,0.043948936749033995,0.045766551272529266,0.10009860487611401,-0.023006523913282874,-0.0009838689526450797,0.043948936749033995,0.027267610507961598,5.956409425431424e-10,2.285606130120198e-10,0.07031379878879843,-0.09181420085603412,0.045766551272529266,5.956409425431424e-10,0.02726774201169844,4.472877897116484e-08,-0.05888337443607078,0.004411858984178832,0.10009860487611401,2.285606130120198e-10,4.472877897116484e-08,0.02726762572110376,154898.56200493762,208369.39071873258,-123694.08030968554,0.0,0.0,0.0,1.401644697263371,-0.8505208500446919,-0.4485241609994748,0.0,0.0,0.0,-0.8505208500446919,1.351092538289837,-0.461848785577891,0.0,0.0,0.0,-0.4485241609994748,-0.461848785577891,1.9834274002850263,0.0,0.0,0.0,0.0,0.0,0.0,0.0,0.0,0.0,0.0,0.0,0.0,0.0,0.0,0.0,0.0,0.0,0.0,0.0,0.0,0.0
1403638519877829500,7783,1403638519877829500,world,odom,59483674.31339395,71581712.06280366,-54989537.2979852,-0.2822522955990242,0.7209968964419721,0.62931406257729,0.06679017586884942,26.282961263848705,-30.98961328682138,-0.16197759252356747,-0.026035883288416557,0.07941259782368129,-0.06639550958364913,-30.98961328682138,38.593752043798474,-0.16706716520688808,-0.0009868962418857247,-0.10370234692906488,0.0050229844906452045,-0.16197759252356747,-0.16706716520688808,1.3643671567452507,0.049535029289449875,0.05156476144277568,0.11277780124165274,-0.026035883288416557,-0.0009868962418857247,0.049535029289449875,0.028943980877956937,8.015063551074725e-10,2.992522112751019e-10,0.07941259782368129,-0.10370234692906488,0.05156476144277568,8.015063551074725e-10,0.02894412924449855,5.0455025127867295e-08,-0.06639550958364913,0.0050229844906452045,0.11277780124165274,2.992522112751019e-10,5.0455025127867295e-08,0.028943998032433724,154898.22821061642,208369.04840699403,-123694.77402203414,0.0,0.0,0.0,1.5453025008990962,-0.9582246050670941,-0.5056840045982899,0.0,0.0,0.0,-0.9582246050670941,1.4888916888307853,-0.5205832464218941,0.0,0.0,0.0,-0.5056840045982899,-0.5205832464218941,2.2007234390406087,0.0,0.0,0.0,0.0,0.0,0.0,0.0,0.0,0.0,0.0,0.0,0.0,0.0,0.0,0.0,0.0,0.0,0.0,0.0,0.0,0.0
1403638519927829500,7784,1403638519927829500,world,odom,59491419.20904708,71592130.49673721,-54995722.04812573,-0.2822175918614974,0.7209805136314837,0.6293421449945912,0.06684904143805138,26.392070655725192,-31.04011995939945,-0.19278972153177748,-0.029330745011467527,0.08935011594507417,-0.0746044270261422,-31.04011995939945,38.7146213197567,-0.19881220733645863,-0.0009958937375487411,-0.11668913471963192,0.0056881345201055655,-0.19278972153177748,-0.19881220733645863,1.5274921890961626,0.05561986743580828,0.05789287659688129,0.12663450475418253,-0.029330745011467527,-0.0009958937375487411,0.05561986743580828,0.030670358031480507,1.0243634685777046e-09,3.735702482840411e-10,0.08935011594507417,-0.11668913471963192,0.05789287659688129,1.0243634685777046e-09,0.030670524815238805,5.6559352039875946e-08,-0.0746044270261422,0.0056881345201055655,0.12663450475418253,3.735702482840411e-10,5.6559352039875946e-08,0.030670377206553433,154897.89380213493,208368.7067803968,-123695.46710503097,0.0,0.0,0.0,1.7017131943134534,-1.075838808297291,-0.5680781962081427,0.0,0.0,0.0,-1.075838808297291,1.6393946071520704,-0.5845628619918998,0.0,0.0,0.0,-0.5680781962081427,-0.5845628619918998,2.4378852353941496,0.0,0.0,0.0,0.0,0.0,0.0,0.0,0.0,0.0,0.0,0.0,0.0,0.0,0.0,0.0,0.0,0.0,0.0,0.0,0.0,0.0
1403638519977829500,7785,1403638519977829500,world,odom,59499164.08800863,71602548.91358918,-55001906.83292024,-0.28216614123808553,0.7209741145633972,0.6293574275332496,0.06699121790999911,26.51442329565945,-31.099526309790612,-0.2283413808157111,-0.03293820823993279,0.10016485469604279,-0.08355178121134196,-31.099526309790612,38.84821683548498,-0.23543120042612298,-0.0009958468146897624,-0.13083867446893419,0.006422594048441033,-0.2283413808157111,-0.23543120042612298,1.7100604189117021,0.0622616628953939,0.06480138752726275,0.14171658672096304,-0.03293820823993279,-0.0009958468146897624,0.0622616628953939,0.03244674184133952,1.2107147944309661e-09,4.356672271678332e-10,0.10016485469604279,-0.13083867446893419,0.06480138752726275,1.2107147944309661e-09,0.032446928860640094,6.325666643590274e-08,-0.08355178121134196,0.006422594048441033,0.14171658672096304,4.356672271678332e-10,6.325666643590274e-08,0.03244676323108492,154897.55998651558,208368.3646494384,-123696.16066771864,0.0,0.0,0.0,1.872276387694064,-1.2039477102004295,-0.6360994080026434,0.0,0.0,0.0,-1.2039477102004295,1.8031491205336347,-0.6544154084697431,0.0,0.0,0.0,-0.6360994080026434,-0.6544154084697431,2.69610401299206,0.0,0.0,0.0,0.0,0.0,0.0,0.0,0.0,0.0,0.0,0.0,0.0,0.0,0.0,0.0,0.0,0.0,0.0,0.0,0.0,0.0
1403638520027829500,7786,1403638520027829500,world,odom,59506908.9502876,71612967.31331848,-55008091.652378745,-0.2820988696966905,0.7209678620959367,0.6293852030681301,0.06708081469058666,26.65144858491996,-31.16890347727145,-0.26919933261698437,-0.03684691190875725,0.11192396996386915,-0.09327441883576512,-31.16890347727145,38.995899872848746,-0.2775092561921253,-0.0010091224265977644,-0.14621887814086956,0.007214543031569494,-0.26919933261698437,-0.2775092561921253,1.9142293615485575,0.06948146905110025,0.07229750634590239,0.15811285577418713,-0.03684691190875725,-0.0010091224265977644,0.06948146905110025,0.034273132798741106,1.2265424597275676e-09,4.42048203787419e-10,0.11192396996386915,-0.14621887814086956,0.07229750634590239,1.2265424597275676e-09,0.03427334167680436,7.044499601926958e-08,-0.09327441883576512,0.007214543031569494,0.15811285577418713,4.42048203787419e-10,7.044499601926958e-08,0.034273156552648426,154897.2261050156,208368.02211956886,-123696.85346649686,0.0,0.0,0.0,2.0575262373082794,-1.3432719345394637,-0.7098936696088273,0.0,0.0,0.0,-1.3432719345394637,1.9808889726128078,-0.7302245664596053,0.0,0.0,0.0,-0.7098936696088273,-0.7302245664596053,2.9768155690883398,0.0,0.0,0.0,0.0,0.0,0.0,0.0,0.0,0.0,0.0,0.0,0.0,0.0,0.0,0.0,0.0,0.0,0.0,0.0,0.0,0.0
1403638520077829500,7787,1403638520077829500,world,odom,59514653.83277233,71623385.74560955,-55014276.53598692,-0.2820702380493184,0.7209372936979161,0.6294242223020924,0.06716358940476391,26.80468764901444,-31.249417921996603,-0.31598182793609697,-0.04108868428760007,0.12467726032118845,-0.10381383506921951,-31.249417921996603,39.159161508917265,-0.32567797233119583,-0.0010150077156782355,-0.1629006757181561,0.008064343031307616,-0.31598182793609697,-0.32567797233119583,2.142347276838982,0.07729922822614459,0.08042075092276704,0.17590101925534252,-0.04108868428760007,-0.0010150077156782355,0.07729922822614459,0.03614954008844817,1.3158841822944177e-09,4.723343866662957e-10,0.12467726032118845,-0.1629006757181561,0.08042075092276704,1.3158841822944177e-09,0.03614977252454401,7.821942703149314e-08,-0.10381383506921951,0.008064343031307616,0.17590101925534252,4.723343866662957e-10,7.821942703149314e-08,0.03614956640832565,154896.89135744414,208367.67952428033,-123697.5469865975,0.0,0.0,0.0,2.2585002272847343,-1.494569977217703,-0.7901941400587859,0.0,0.0,0.0,-1.494569977217703,2.174097811406709,-0.8126110596687837,0.0,0.0,0.0,-0.7901941400587859,-0.8126110596687837,3.2815235750274256,0.0,0.0,0.0,0.0,0.0,0.0,0.0,0.0,0.0,0.0,0.0,0.0,0.0,0.0,0.0,0.0,0.0,0.0,0.0,0.0,0.0
1403638520127829500,7788,1403638520127829500,world,odom,59522398.66159826,71633804.11111432,-55020461.42476348,-0.2820281865277403,0.7209265391935068,0.6294447577959162,0.06726309518292753,26.97580787258313,-31.34232818761651,-0.3693573659041307,-0.04568219432393816,0.13846884881736954,-0.11522621226455534,-31.34232818761651,39.33960830310324,-0.38062213163404335,-0.0010217136922022303,-0.1809544425008962,0.008994259313120586,-0.3693573659041307,-0.38062213163404335,2.396946072408674,0.08576486091528768,0.0892213608731239,0.19514205859718864,-0.04568219432393816,-0.0010217136922022303,0.08576486091528768,0.03807594615279271,1.5291069356249817e-09,5.42360672742373e-10,0.13846884881736954,-0.1809544425008962,0.0892213608731239,1.5291069356249817e-09,0.03807620384609491,8.644627462767016e-08,-0.11522621226455534,0.008994259313120586,0.19514205859718864,5.42360672742373e-10,8.644627462767016e-08,0.03807597515115797,154896.55730225847,208367.3380898394,-123698.24006797183,0.0,0.0,0.0,2.475162094934771,-1.6578378621867778,-0.876911296593143,0.0,0.0,0.0,-1.6578378621867778,2.3826434489891724,-0.901510119727946,0.0,0.0,0.0,-0.876911296593143,-0.901510119727946,3.610223105741162,0.0,0.0,0.0,0.0,0.0,0.0,0.0,0.0,0.0,0.0,0.0,0.0,0.0,0.0,0.0,0.0,0.0,0.0,0.0,0.0,0.0
1403638520177829500,7789,1403638520177829500,world,odom,59530143.4737146,71644222.45951082,-55026646.34821567,-0.2819695805776478,0.7208965678320063,0.6294923889774867,0.06738416977536879,27.1666203636254,-31.44899484042743,-0.4300505199218679,-0.050654738219983335,0.15336577994731246,-0.1275412063380193,-31.44899484042743,39.53897574856829,-0.4430867748870777,-0.001026407235327976,-0.2004541551744911,0.009988615040851814,-0.4300505199218679,-0.4430867748870777,2.680763351482328,0.09492213655078628,0.0987157232760236,0.21591790510472814,-0.050654738219983335,-0.001026407235327976,0.09492213655078628,0.04005235962193584,1.6320247429017628e-09,5.767067072328839e-10,0.15336577994731246,-0.2004541551744911,0.0987157232760236,1.6320247429017628e-09,0.04005264466211017,9.527850815449405e-08,-0.1275412063380193,0.009988615040851814,0.21591790510472814,5.767067072328839e-10,9.527850815449405e-08,0.04005239147413707,154896.22312303496,208366.99563944983,-123698.93365821755,0.0,0.0,0.0,2.70968488079035,-1.8344380665228792,-0.97072133803736,0.0,0.0,0.0,-1.8344380665228792,2.6079711577660265,-0.9977934922087952,0.0,0.0,0.0,-0.97072133803736,-0.9977934922087952,3.965657333071606,0.0,0.0,0.0,0.0,0.0,0.0,0.0,0.0,0.0,0.0,0.0,0.0,0.0,0.0,0.0,0.0,0.0,0.0,0.0,0.0,0.0
1403638520227829500,7790,1403638520227829500,world,odom,59537888.26912268,71654640.79080804,-55032831.306346476,-0.2819332323178139,0.7208723584911856,0.6295239806683566,0.06750002253075073,27.379073566476354,-31.570887409129824,-0.49884337814760843,-0.0560148220513556,0.16941512028031408,-0.14082202385796017,-31.570887409129824,39.75913972599362,-0.5138735051292175,-0.0010265862370844512,-0.22147431184444755,0.01106468078030769,-0.49884337814760843,-0.5138735051292175,2.9967545446670685,0.10478160635311519,0.10895656140228381,0.2383113596697119,-0.0560148220513556,-0.0010265862370844512,0.10478160635311519,0.04207878049862214,1.9610814865584036e-09,6.82863018188483e-10,0.16941512028031408,-0.22147431184444755,0.10895656140228381,1.9610814865584036e-09,0.042079095154251754,1.0484519893253138e-07,-0.14082202385796017,0.01106468078030769,0.2383113596697119,6.82863018188483e-10,1.0484519893253138e-07,0.04207881543838548,154895.88845250884,208366.653660606,-123699.62742015524,0.0,0.0,0.0,2.9621335850504416,-2.0247980507801486,-1.0719806644213161,0.0,0.0,0.0,-2.0247980507801486,2.851094145685047,-1.1015634992264984,0.0,0.0,0.0,-1.0719806644213161,-1.1015634992264984,4.348656002381627,0.0,0.0,0.0,0.0,0.0,0.0,0.0,0.0,0.0,0.0,0.0,0.0,0.0,0.0,0.0,0.0,0.0,0.0,0.0,0.0,0.0
1403638520277829500,7791,1403638520277829500,world,odom,59545633.04777596,71665059.10500604,-55039016.29915378,-0.28189675660277025,0.7208466710156947,0.6295582140349958,0.06760732684773074,27.615268641899938,-31.70960147823588,-0.5765835894155443,-0.06178072519285473,0.1866816518369066,-0.15511016630404037,-31.70960147823588,40.00214047989551,-0.5938462599162708,-0.0010279242527546015,-0.24409399531726772,0.012219567517705683,-0.5765835894155443,-0.5938462599162708,3.34812738399521,0.11538866755167018,0.11997027844649506,0.26240676461915224,-0.06178072519285473,-0.0010279242527546015,0.11538866755167018,0.0441552088971506,2.3048131644308066e-09,7.961249356818772e-10,0.1866816518369066,-0.24409399531726772,0.11997027844649506,2.3048131644308066e-09,0.044155555467032766,1.1531978981569718e-07,-0.15511016630404037,0.012219567517705683,0.26240676461915224,7.961249356818772e-10,1.1531978981569718e-07,0.04415524727099196,154895.55287131184,208366.3115823488,-123700.32062287041,0.0,0.0,0.0,3.2334912802615436,-2.2299184992115277,-1.1809296841990622,0.0,0.0,0.0,-2.2299184992115277,3.1129694563766925,-1.21305954482699,0.0,0.0,0.0,-1.1809296841990622,-1.21305954482699,4.7612218153041415,0.0,0.0,0.0,0.0,0.0,0.0,0.0,0.0,0.0,0.0,0.0,0.0,0.0,0.0,0.0,0.0,0.0,0.0,0.0,0.0,0.0
