%time,field.header.seq,field.header.stamp,field.header.frame_id,field.child_frame_id,field.pose.pose.position.x,field.pose.pose.position.y,field.pose.pose.position.z,field.pose.pose.orientation.x,field.pose.pose.orientation.y,field.pose.pose.orientation.z,field.pose.pose.orientation.w,field.pose.covariance0,field.pose.covariance1,field.pose.covariance2,field.pose.covariance3,field.pose.covariance4,field.pose.covariance5,field.pose.covariance6,field.pose.covariance7,field.pose.covariance8,field.pose.covariance9,field.pose.covariance10,field.pose.covariance11,field.pose.covariance12,field.pose.covariance13,field.pose.covariance14,field.pose.covariance15,field.pose.covariance16,field.pose.covariance17,field.pose.covariance18,field.pose.covariance19,field.pose.covariance20,field.pose.covariance21,field.pose.covariance22,field.pose.covariance23,field.pose.covariance24,field.pose.covariance25,field.pose.covariance26,field.pose.covariance27,field.pose.covariance28,field.pose.covariance29,field.pose.covariance30,field.pose.covariance31,field.pose.covariance32,field.pose.covariance33,field.pose.covariance34,field.pose.covariance35,field.twist.twist.linear.x,field.twist.twist.linear.y,field.twist.twist.linear.z,field.twist.twist.angular.x,field.twist.twist.angular.y,field.twist.twist.angular.z,field.twist.covariance0,field.twist.covariance1,field.twist.covariance2,field.twist.covariance3,field.twist.covariance4,field.twist.covariance5,field.twist.covariance6,field.twist.covariance7,field.twist.covariance8,field.twist.covariance9,field.twist.covariance10,field.twist.covariance11,field.twist.covariance12,field.twist.covariance13,field.twist.covariance14,field.twist.covariance15,field.twist.covariance16,field.twist.covariance17,field.twist.covariance18,field.twist.covariance19,field.twist.covariance20,field.twist.covariance21,field.twist.covariance22,field.twist.covariance23,field.twist.covariance24,field.twist.covariance25,field.twist.covariance26,field.twist.covariance27,field.twist.covariance28,field.twist.covariance29,field.twist.covariance30,field.twist.covariance31,field.twist.covariance32,field.twist.covariance33,field.twist.covariance34,field.twist.covariance35
1403715274262143000,0,1403715274262143000,world,odom,0.0,0.0,0.0,0.010820738397837185,-0.8296036678192388,0.0,0.5582478535215266,0.0,0.0,0.0,0.0,0.0,0.0,0.0,0.0,0.0,0.0,0.0,0.0,0.0,0.0,0.0,0.0,0.0,0.0,0.0,0.0,0.0,0.0,0.0,0.0,0.0,0.0,0.0,0.0,0.0,0.0,0.0,0.0,0.0,0.0,0.0,0.0,0.0,0.0,0.0,0.0,0.0,0.0,0.25,0.0,0.0,0.0,0.0,0.0,0.0,0.25,0.0,0.0,0.0,0.0,0.0,0.0,0.25,0.0,0.0,0.0,0.0,0.0,0.0,0.0,0.0,0.0,0.0,0.0,0.0,0.0,0.0,0.0,0.0,0.0,0.0,0.0,0.0,0.0
1403715274312143000,1,1403715274312143000,world,odom,5.598328172031211e-06,-5.627371891826312e-05,3.5827272135663336e-05,0.010791912198348552,-0.8297131668521378,-6.563686051178223e-05,0.5580856485120382,0.0005063512853266624,-2.3311217472967003e-15,9.715994188213732e-14,1.3908413313069834e-10,7.17136885019772e-08,-1.4477487325764832e-09,-2.3311217472967003e-15,0.0005063512852098987,5.331667014754788e-12,2.6986677117443294e-08,1.2881106482731573e-09,6.642768594619659e-08,9.715994188213732e-14,5.331667014754788e-12,0.0005063510325595278,5.815420823318954e-10,5.5518168576501946e-11,1.430598674486519e-09,1.3908413313069834e-10,2.6986677117443294e-08,5.815420823318954e-10,2.1375105373028724e-05,5.297401844096602e-13,-4.339573651547409e-13,7.17136885019772e-08,1.2881106482731573e-09,5.5518168576501946e-11,5.297401844096602e-13,2.137510486947209e-05,-1.6634971216657076e-13,-1.4477487325764832e-09,6.642768594619659e-08,1.430598674486519e-09,-4.339573651547409e-13,-1.6634971216657076e-13,2.1375104389165715e-05,0.0006308629211950084,-0.002980080083607398,0.0031188273824066933,0.0,0.0,0.0,0.25013384158208624,2.120917257312678e-11,-2.427793606896901e-09,0.0,0.0,0.0,2.120917257312678e-11,0.25013384151054746,8.698534566436448e-09,0.0,0.0,0.0,-2.427793606896901e-09,8.698534566436448e-09,0.250132753903116,0.0,0.0,0.0,0.0,0.0,0.0,0.0,0.0,0.0,0.0,0.0,0.0,0.0,0.0,0.0,0.0,0.0,0.0,0.0,0.0,0.0
1403715274362143000,2,1403715274362143000,world,odom,9.467291206170127e-05,-7.980177842374292e-05,0.0001354177566044818,0.010754509395121013,-0.8296318311262096,-0.0002378767933957214,0.5582072274025783,0.0022572475939951716,1.7897487810146598e-13,-5.845387057164626e-11,-2.1108286322847777e-08,1.3686101010971797e-06,-1.7484837032374438e-08,1.7897487810146598e-13,0.0022572475939088865,5.8037625463248724e-11,5.190637790329689e-07,2.4197370104177688e-08,1.2664240120436948e-06,-5.845387057164626e-11,5.8037625463248724e-11,0.002257226905949006,1.5000496340324284e-09,-3.813763599282804e-09,3.5670445086877257e-09,-2.1108286322847777e-08,5.190637790329689e-07,1.5000496340324284e-09,9.262535945238905e-05,4.711313693748859e-13,3.898515628886916e-13,1.3686101010971797e-06,2.4197370104177688e-08,-3.813763599282804e-09,4.711313693748859e-13,9.262535513832725e-05,-9.286017495380716e-13,-1.7484837032374438e-08,1.2664240120436948e-06,3.5670445086877257e-09,3.898515628886916e-13,-9.286017495380716e-13,9.262535538405687e-05,0.001918718360195674,-0.0022185021535648776,0.001311959489966302,0.0,0.0,0.0,0.2503479785764032,1.133284153563216e-10,-4.0071443859626574e-08,0.0,0.0,0.0,1.133284153563216e-10,0.25034797845360224,5.974925684657268e-08,0.0,0.0,0.0,-4.0071443859626574e-08,5.974925684657268e-08,0.25032778127297967,0.0,0.0,0.0,0.0,0.0,0.0,0.0,0.0,0.0,0.0,0.0,0.0,0.0,0.0,0.0,0.0,0.0,0.0,0.0,0.0,0.0
1403715274412143000,3,1403715274412143000,world,odom,0.00016251045728530875,-0.00015095331487416797,0.0002391443500790263,0.01092926212228637,-0.8297036389224365,-0.00023195065963876364,0.5580970963794929,0.005260300700440693,4.124535460091217e-13,-2.4397581768920697e-10,-1.229088309066831e-07,7.342945132764627e-06,-9.170171203324646e-08,4.124535460091217e-13,0.005260300699545353,4.1499720915125137e-10,2.7740976756180655e-06,1.3135744201022442e-07,6.799216562093298e-06,-2.4397581768920697e-10,4.1499720915125137e-10,0.005260044835232519,4.589026942212617e-09,-6.659339368495281e-09,1.1065862132096612e-08,-1.229088309066831e-07,2.7740976756180655e-06,4.589026942212617e-09,0.0002138766977114133,-2.381649135510553e-12,-1.7678179820073086e-12,7.342945132764627e-06,1.3135744201022442e-07,-6.659339368495281e-09,-2.381649135510553e-12,0.00021387668318632777,-1.7729696665750181e-12,-9.170171203324646e-08,6.799216562093298e-06,1.1065862132096612e-08,-1.7678179820073086e-12,-1.7729696665750181e-12,0.00021387668712720948,0.001587377992001278,0.008817389785234522,0.004202746112855746,0.0,0.0,0.0,0.25068187087493105,-1.040947094179076e-09,-7.220556112292977e-08,0.0,0.0,0.0,-1.040947094179076e-09,0.2506818502724998,-1.5007679213221123e-06,0.0,0.0,0.0,-7.220556112292977e-08,-1.5007679213221123e-06,0.2505728790305353,0.0,0.0,0.0,0.0,0.0,0.0,0.0,0.0,0.0,0.0,0.0,0.0,0.0,0.0,0.0,0.0,0.0,0.0,0.0,0.0,0.0
1403715274462143000,4,1403715274462143000,world,odom,0.00020034457248848167,-0.00026315673377401276,0.0003569801853720082,0.010767139193854079,-0.8296481191316892,-0.0003333489718356571,0.5581827263659221,0.009517800845679632,8.135020007166402e-13,-2.87067330024901e-10,-3.978625257505554e-07,2.3895989417897528e-05,-2.8948275092553643e-07,8.135020007166402e-13,0.009517800838841625,2.3187834772067024e-09,9.005934043334413e-06,4.181149154662217e-07,2.213541100706094e-05,-2.87067330024901e-10,2.3187834772067024e-09,0.009516301774122191,1.398463417162834e-08,-3.6807394555625114e-09,3.4279613450317244e-08,-3.978625257505554e-07,9.005934043334413e-06,1.398463417162834e-08,0.00038512821843173374,-6.646848336524879e-13,-5.567938281077365e-12,2.3895989417897528e-05,4.181149154662217e-07,-3.6807394555625114e-09,-6.646848336524879e-13,0.0003851281736924489,-1.963536806822497e-12,-2.8948275092553643e-07,2.213541100706094e-05,3.4279613450317244e-08,-5.567938281077365e-12,-1.963536806822497e-12,0.0003851281815084956,0.0010139341494047145,0.006071780694855291,0.002604802012312065,0.0,0.0,0.0,0.25122033383471737,4.409906960320759e-10,5.512125702564646e-09,0.0,0.0,0.0,4.409906960320759e-10,0.2512203122730088,-2.7268687280621012e-06,0.0,0.0,0.0,5.512125702564646e-09,-2.7268687280621012e-06,0.25086802919762546,0.0,0.0,0.0,0.0,0.0,0.0,0.0,0.0,0.0,0.0,0.0,0.0,0.0,0.0,0.0,0.0,0.0,0.0,0.0,0.0,0.0
1403715274512143000,5,1403715274512143000,world,odom,0.00020483919836162526,-0.0004285564110567882,0.0004722668276854187,0.011127375599014479,-0.8296084025801778,-0.00045011249609432547,0.5582346077406748,0.015033772737786902,-6.542809947209014e-13,1.7715789320775642e-09,-1.0207273551530765e-06,5.936096566659648e-05,-7.365759655073079e-07,-6.542809947209014e-13,0.015033772710580472,9.985363144586527e-09,2.234017813095586e-05,1.0666095888924256e-06,5.500065816829803e-05,1.7715789320775642e-09,9.985363144586527e-09,0.015027910199621276,3.775742371577594e-08,2.018275881531143e-08,9.357388701729086e-08,-1.0207273551530765e-06,2.234017813095586e-05,3.775742371577594e-08,0.00060638060758221,-1.9827626364515613e-12,-8.306927476853648e-12,5.936096566659648e-05,1.0666095888924256e-06,2.018275881531143e-08,-1.9827626364515613e-12,0.0006063805295049588,-1.3427127708311353e-11,-7.365759655073079e-07,5.500065816829803e-05,9.357388701729086e-08,-8.306927476853648e-12,-1.3427127708311353e-11,0.0006063805524370137,0.0006322041878783645,0.0017985528356365041,0.001616076500797593,0.0,0.0,0.0,0.252086073833482,4.0134645261980515e-10,1.5218367328490444e-07,0.0,0.0,0.0,4.0134645261980515e-10,0.25208606589729776,-2.5833556989091083e-06,0.0,0.0,0.0,1.5218367328490444e-07,-2.5833556989091083e-06,0.25121326407760125,0.0,0.0,0.0,0.0,0.0,0.0,0.0,0.0,0.0,0.0,0.0,0.0,0.0,0.0,0.0,0.0,0.0,0.0,0.0,0.0,0.0
1403715274562143000,6,1403715274562143000,world,odom,0.00023626618858936158,-0.0006690607938429453,0.0005651572857464326,0.011058188801900508,-0.8296314364995366,-0.0003274103804741848,0.5582018352124788,0.02181494180503504,-2.996079484413189e-12,4.349643676578672e-09,-2.0690377302600394e-06,0.00012451040891694895,-1.5756956724358404e-06,-2.996079484413189e-12,0.02181494169989804,3.5376546132530276e-08,4.6877437324006034e-05,2.2388011090378083e-06,0.00011535602585633394,4.349643676578672e-09,3.5376546132530276e-08,0.021797147014585478,9.281742938543588e-08,3.527666866183522e-08,2.293791025546325e-07,-2.0690377302600394e-06,4.6877437324006034e-05,9.281742938543588e-08,0.0008776341120416426,-8.509287713454084e-12,3.4781817603164127e-12,0.00012451040891694895,2.2388011090378083e-06,3.527666866183522e-08,-8.509287713454084e-12,0.0008776340002357268,-2.7352766494141986e-11,-1.5756956724358404e-06,0.00011535602585633394,2.293791025546325e-07,3.4781817603164127e-12,-2.7352766494141986e-11,0.0008776340698897176,0.0010814377208872496,-0.0033947275743637035,0.002271726863726305,0.0,0.0,0.0,0.2534406767346338,6.126248454251626e-10,-3.5168799626069374e-07,0.0,0.0,0.0,6.126248454251626e-10,0.2534406737220276,1.4284047153252962e-06,0.0,0.0,0.0,-3.5168799626069374e-07,1.4284047153252962e-06,0.25160862951753155,0.0,0.0,0.0,0.0,0.0,0.0,0.0,0.0,0.0,0.0,0.0,0.0,0.0,0.0,0.0,0.0,0.0,0.0,0.0,0.0,0.0
1403715274612143000,7,1403715274612143000,world,odom,0.00027402312523059025,-0.0008913410822422794,0.0006682033768128775,0.011123135558567653,-0.8295767024640239,-0.0004512108500196489,0.5582817989089656,0.029872075329365384,-2.533741788599396e-12,7.736202661929058e-09,-3.951193829203186e-06,0.0002325889519649689,-2.901315658807284e-06,-2.533741788599396e-12,0.029872075098929005,8.168717002713787e-08,8.754541898538823e-05,4.175320685793925e-06,0.0002154988618314564,7.736202661929058e-09,8.168717002713787e-08,0.029826665002693042,1.5691160719495686e-07,4.7436521819510795e-08,3.8755240438790047e-07,-3.951193829203186e-06,8.754541898538823e-05,1.5691160719495686e-07,0.001198888983125835,-1.7959510439900508e-11,3.471419987600378e-11,0.0002325889519649689,4.175320685793925e-06,4.7436521819510795e-08,-1.7959510439900508e-11,0.0011988888228024039,-4.5464764645177744e-11,-2.901315658807284e-06,0.0002154988618314564,3.8755240438790047e-07,3.471419987600378e-11,-4.5464764645177744e-11,0.0011988889624469678,-0.0002538082165882183,-0.015047962659106857,0.00025845361182246234,0.0,0.0,0.0,0.25546714873674214,-1.4945529213158117e-08,2.1312611734075413e-06,0.0,0.0,0.0,-1.4945529213158117e-08,0.2554669488222133,2.5174239482400368e-05,0.0,0.0,0.0,2.1312611734075413e-06,2.5174239482400368e-05,0.2520543362338077,0.0,0.0,0.0,0.0,0.0,0.0,0.0,0.0,0.0,0.0,0.0,0.0,0.0,0.0,0.0,0.0,0.0,0.0,0.0,0.0,0.0
1403715274662143000,8,1403715274662143000,world,odom,0.000278618057891199,-0.001172401193427275,0.0007497874166522497,0.011286720504171682,-0.8295562995230515,-0.0006947112392131687,0.5583085824507592,0.03922162408490842,-2.920025536918527e-11,2.436616929253591e-08,-6.995437696358906e-06,0.00039923857636598597,-4.874276939042004e-06,-2.920025536918527e-11,0.03922162358837796,1.7755691529864734e-07,0.0001502276305211449,7.148519403789674e-06,0.00036992427893433146,2.436616929253591e-08,1.7755691529864734e-07,0.039119540473681005,2.596911277493543e-07,1.0813795023489044e-07,6.42625185557246e-07,-6.995437696358906e-06,0.0001502276305211449,2.596911277493543e-07,0.0015701473066277716,-1.934815709499006e-11,3.663499758615996e-11,0.00039923857636598597,7.148519403789674e-06,1.0813795023489044e-07,-1.934815709499006e-11,0.0015701470827172595,-8.49878774314525e-11,-4.874276939042004e-06,0.00036992427893433146,6.42625185557246e-07,3.663499758615996e-11,-8.49878774314525e-11,0.0015701473609065083,-0.00038672925535131197,-0.013624607606237701,0.002687724498252256,0.0,0.0,0.0,0.2584234864599753,-1.779797599938421e-08,3.338587818403482e-06,0.0,0.0,0.0,-1.779797599938421e-08,0.2584232897429336,3.227879306641685e-05,0.0,0.0,0.0,3.338587818403482e-06,3.227879306641685e-05,0.2525500251387796,0.0,0.0,0.0,0.0,0.0,0.0,0.0,0.0,0.0,0.0,0.0,0.0,0.0,0.0,0.0,0.0,0.0,0.0,0.0,0.0,0.0
1403715274712143000,9,1403715274712143000,world,odom,0.0011825621832090528,-0.0017657821043909143,-0.00024663055734000625,0.011027994271958283,-0.8293809406585391,-0.0008640878707755527,0.55857398074637,0.0022140608625506003,-0.001966377151801373,-0.00016013163627787364,-0.0008908197833831622,0.0003247005887878806,8.430860837011147e-05,-0.001966377151801373,0.002129689011715076,3.839327628094019e-05,0.0011673851864548801,-0.00017492074150294876,-0.0002608406360563944,-0.00016013163627787364,3.839327628094019e-05,0.0005119172339005662,7.585204132408771e-05,-0.0006463134556140481,0.0006113315282681613,-0.0008908197833831622,0.0011673851864548801,7.585204132408771e-05,0.0009188726446380193,-0.0001464423357116101,-7.526256952603167e-05,0.0003247005887878806,-0.00017492074150294876,-0.0006463134556140481,-0.0001464423357116101,0.0011336520576736538,-0.000682248506182275,8.430860837011147e-05,-0.0002608406360563944,0.0006113315282681613,-7.526256952603167e-05,-0.000682248506182275,0.0013270119354857187,0.002493978988676663,-0.016256244887195955,0.0019743051542812024,0.0,0.0,0.0,0.016867385037060534,-0.012943595060289022,-0.002990001276534097,0.0,0.0,0.0,-0.012943595060289022,0.01539764745946153,0.002057280684609004,0.0,0.0,0.0,-0.002990001276534097,0.002057280684609004,0.003595260937219902,0.0,0.0,0.0,0.0,0.0,0.0,0.0,0.0,0.0,0.0,0.0,0.0,0.0,0.0,0.0,0.0,0.0,0.0,0.0,0.0,0.0
1403715274762143000,10,1403715274762143000,world,odom,0.0013127598881356051,-0.002258993182561378,-0.00029231277092751456,0.011039919372407439,-0.8293609538524946,-0.0010629509017776448,0.5586030778115273,0.0028207420599486188,-0.002482222324936275,-0.00026062511213926945,-0.0011173826956213072,0.0005091173203023373,3.647509061809166e-05,-0.002482222324936275,0.002690859084323107,0.00010158040480097737,0.0014700457465811256,-0.00027920073843921354,-0.00021422375017034626,-0.00026062511213926945,0.00010158040480097737,0.0006411912747121336,9.363061209520475e-05,-0.0008003407292777977,0.0007550619591062092,-0.0011173826956213072,0.0014700457465811256,9.363061209520475e-05,0.0011371529675676,-0.00018075681128452504,-9.319477150072228e-05,0.0005091173203023373,-0.00027920073843921354,-0.0008003407292777977,-0.00018075681128452504,0.0014039802901677288,-0.0008434842032702022,3.647509061809166e-05,-0.00021422375017034626,0.0007550619591062092,-9.319477150072228e-05,-0.0008434842032702022,0.0016399769424575237,0.0016062716629746834,-0.012640084431685865,-0.0019231166487840138,0.0,0.0,0.0,0.020064109406018514,-0.014713246008935338,-0.0037442957287910903,0.0,0.0,0.0,-0.014713246008935338,0.018225013696081187,0.002707066272058599,0.0,0.0,0.0,-0.0037442957287910903,0.002707066272058599,0.003956539176940593,0.0,0.0,0.0,0.0,0.0,0.0,0.0,0.0,0.0,0.0,0.0,0.0,0.0,0.0,0.0,0.0,0.0,0.0,0.0,0.0,0.0
1403715274812143000,11,1403715274812143000,world,odom,0.0014119076361406703,-0.0028073072212798852,-0.00032487972932461885,0.010974171883096353,-0.8293318977856907,-0.0011208810725242195,0.5586473972840885,0.003556143039465477,-0.0030884927004108656,-0.0003997423180705766,-0.0013750028806018373,0.0007617055963174788,-4.622906012708868e-05,-0.0030884927004108656,0.003360174889543041,0.00019598212558307793,0.0018152850490550034,-0.00042356147800512613,-0.00011286305430545008,-0.0003997423180705766,0.00019598212558307793,0.0007914660877774074,0.0001132022507358051,-0.0009703271894664473,0.0009145213737844673,-0.0013750028806018373,0.0018152850490550034,0.0001132022507358051,0.001378545096840133,-0.00021883581685787015,-0.00011303141734488902,0.0007617055963174788,-0.00042356147800512613,-0.0009703271894664473,-0.00021883581685787015,0.0017020195550059914,-0.0010215714949628404,-4.622906012708868e-05,-0.00011286305430545008,0.0009145213737844673,-0.00011303141734488902,-0.0010215714949628404,0.001987342356912386,0.002674073013275077,-0.014524705615635944,-0.001863794335307871,0.0,0.0,0.0,0.024324730858549946,-0.017100679815176514,-0.004606569201615632,0.0,0.0,0.0,-0.017100679815176514,0.02209959582444516,0.0034512002438605765,0.0,0.0,0.0,-0.004606569201615632,0.0034512002438605765,0.004386633295721802,0.0,0.0,0.0,0.0,0.0,0.0,0.0,0.0,0.0,0.0,0.0,0.0,0.0,0.0,0.0,0.0,0.0,0.0,0.0,0.0,0.0
1403715274862143000,12,1403715274862143000,world,odom,0.0012744695270299465,-0.0021355237409028845,6.25682523857225e-06,0.010593906365290003,-0.8292940775899391,-0.0005504789491230622,0.558711731571033,0.00409694527519367,-0.0034602750369606044,-0.0004725223713978024,-0.001500639480313914,0.0009437574689508809,-5.4335747579926024e-05,-0.0034602750369606044,0.0036677632640929017,0.00019237505472781305,0.0019612582881343692,-0.0005053705055728184,-0.00023718428071184335,-0.0004725223713978024,0.00019237505472781305,0.0008620882500864599,6.729600332406269e-05,-0.0010865617800423725,0.0009858735017560763,-0.001500639480313914,0.0019612582881343692,6.729600332406269e-05,0.0015224609696642172,-0.0002085194917291976,-0.00028270809533426664,0.0009437574689508809,-0.0005053705055728184,-0.0010865617800423725,-0.0002085194917291976,0.0019428849465628938,-0.0011894314363358105,-5.4335747579926024e-05,-0.00023718428071184335,0.0009858735017560763,-0.00028270809533426664,-0.0011894314363358105,0.002113991482202112,0.003694212499154816,-0.008607439919393273,0.0018103828653521204,0.0,0.0,0.0,0.027327683378573803,-0.018389126380682796,-0.00485129472008953,0.0,0.0,0.0,-0.018389126380682796,0.021066065185443912,0.003228662101071185,0.0,0.0,0.0,-0.00485129472008953,0.003228662101071185,0.00404760513534837,0.0,0.0,0.0,0.0,0.0,0.0,0.0,0.0,0.0,0.0,0.0,0.0,0.0,0.0,0.0,0.0,0.0,0.0,0.0,0.0,0.0
1403715274912143000,13,1403715274912143000,world,odom,0.0014990400468040573,-0.0026324566914236293,8.438754507533115e-05,0.010581807115168412,-0.8293111342354388,-0.0004391616510464139,0.5586867415004152,0.005139385669985778,-0.004276861721712764,-0.0006713414304967968,-0.0018784555543637869,0.0013373314280092936,-0.00014923912020786196,-0.004276861721712764,0.00452945156154938,0.0003496796619984618,0.0023866803427734385,-0.000787394139453873,-5.975367181732581e-05,-0.0006713414304967968,0.0003496796619984618,0.0009928830819840432,0.00011740375295814694,-0.001171992565999792,0.001078042668116298,-0.0018784555543637869,0.0023866803427734385,0.00011740375295814694,0.0017713253172206575,-0.0003158844177852154,-0.00026187643559729746,0.0013373314280092936,-0.000787394139453873,-0.001171992565999792,-0.0003158844177852154,0.002048002525934931,-0.00123396959998437,-0.00014923912020786196,-5.975367181732581e-05,0.001078042668116298,-0.00026187643559729746,-0.00123396959998437,0.002360859543055904,0.0019945680913606625,-0.01156280206903917,-0.00017482533757964412,0.0,0.0,0.0,0.03296524725015336,-0.021629608925058365,-0.005492890839645017,0.0,0.0,0.0,-0.021629608925058365,0.025923014358622827,0.003802854907323201,0.0,0.0,0.0,-0.005492890839645017,0.003802854907323201,0.0044528799963736146,0.0,0.0,0.0,0.0,0.0,0.0,0.0,0.0,0.0,0.0,0.0,0.0,0.0,0.0,0.0,0.0,0.0,0.0,0.0,0.0,0.0
1403715274962143000,14,1403715274962143000,world,odom,0.0016165357429297293,-0.0030421429389423486,0.0001242798341074925,0.01050080726974939,-0.8293259177455695,-0.00036796205655754174,0.5586663761191266,0.006246378292882728,-0.0050945909892064585,-0.0009014825751671638,-0.0021879392342957966,0.0017612028830325654,-0.0003195491916471183,-0.0050945909892064585,0.005403425419757756,0.0005072363953095575,0.0027713001165029566,-0.001038223582959533,0.0001493453375428288,-0.0009014825751671638,0.0005072363953095575,0.0011638724856010531,0.00013254398775555426,-0.0013398072048287943,0.0012300846809181329,-0.0021879392342957966,0.0027713001165029566,0.00013254398775555426,0.0020249762670784253,-0.0003611629047412188,-0.00029945513993179674,0.0017612028830325654,-0.001038223582959533,-0.0013398072048287943,-0.0003611629047412188,0.002341171160681947,-0.0014098362057368965,-0.0003195491916471183,0.0001493453375428288,0.0012300846809181329,-0.00029945513993179674,-0.0014098362057368965,0.0026995066207459012,0.0034495226919246985,-0.009283761304841053,0.001685180192058217,0.0,0.0,0.0,0.03987142535195761,-0.025627873196686114,-0.006333281045884324,0.0,0.0,0.0,-0.025627873196686114,0.03149412436190874,0.004446150975585704,0.0,0.0,0.0,-0.006333281045884324,0.004446150975585704,0.004889365749429325,0.0,0.0,0.0,0.0,0.0,0.0,0.0,0.0,0.0,0.0,0.0,0.0,0.0,0.0,0.0,0.0,0.0,0.0,0.0,0.0,0.0
1403715275012143000,15,1403715275012143000,world,odom,0.0018051455649598768,-0.00354483980163975,0.00024265961184006266,0.010430777777626904,-0.8292895299989006,-0.00035648630870828126,0.558721708211403,0.007757186501674579,-0.006177913522133451,-0.001219392987611744,-0.002569271611257853,0.0023409798587407478,-0.0005701049899279466,-0.006177913522133451,0.006582723584591506,0.0007300819789227706,0.0032435995273087936,-0.001381044300746616,0.0004719078600620018,-0.001219392987611744,0.0007300819789227706,0.001380807593216661,0.00015024352853509722,-0.0015399504485258393,0.001410362653607165,-0.002569271611257853,0.0032435995273087936,0.00015024352853509722,0.0023270503248881084,-0.0004146158413211781,-0.0003441243086180853,0.0023409798587407478,-0.001381044300746616,-0.0015399504485258393,-0.0004146158413211781,0.0026904421960177987,-0.0016192418700349456,-0.0005701049899279466,0.0004719078600620018,0.001410362653607165,-0.0003441243086180853,-0.0016192418700349456,0.0031015137498362428,0.0044715935856267305,-0.010366979235456066,0.0022613262612837847,0.0,0.0,0.0,0.04917591102910481,-0.031049198815006805,-0.007347639991740458,0.0,0.0,0.0,-0.031049198815006805,0.03916123713946824,0.005226551819906069,0.0,0.0,0.0,-0.007347639991740458,0.005226551819906069,0.005424253613538516,0.0,0.0,0.0,0.0,0.0,0.0,0.0,0.0,0.0,0.0,0.0,0.0,0.0,0.0,0.0,0.0,0.0,0.0,0.0,0.0,0.0
1403715275062143000,16,1403715275062143000,world,odom,0.00204875517830034,-0.004110201733087981,0.0003507137267840568,0.010399426032157197,-0.8292703175477177,-0.0003503461243462943,0.5587508117489427,0.009637803928804615,-0.007488885763721792,-0.001612412698983497,-0.0029927828554699373,0.00305192399588465,-0.0008950288968841534,-0.007488885763721792,0.008041633829913521,0.0010108309571360515,0.0037665461408817958,-0.001801408645070911,0.0009047396845773342,-0.001612412698983497,0.0010108309571360515,0.0016297207865158675,0.00016908399380443934,-0.0017542497271735426,0.0016028990156814688,-0.0029927828554699373,0.0037665461408817958,0.00016908399380443934,0.0026501314326492424,-0.00047189382949071215,-0.0003917242101243197,0.00305192399588465,-0.001801408645070911,-0.0017542497271735426,-0.00047189382949071215,0.003063826011659116,-0.0018431257026161306,-0.0008950288968841534,0.0009047396845773342,0.0016028990156814688,-0.0003917242101243197,-0.0018431257026161306,0.003531562611905247,0.004541290166421182,-0.011198280698052992,0.0013252796184582169,0.0,0.0,0.0,0.06045010525876716,-0.03765348233714283,-0.008420429436973428,0.0,0.0,0.0,-0.03765348233714283,0.04860448560990853,0.006048898482259483,0.0,0.0,0.0,-0.008420429436973428,0.006048898482259483,0.005997191938871494,0.0,0.0,0.0,0.0,0.0,0.0,0.0,0.0,0.0,0.0,0.0,0.0,0.0,0.0,0.0,0.0,0.0,0.0,0.0,0.0,0.0
1403715275112143000,17,1403715275112143000,world,odom,0.0022514364090722586,-0.004642444236328698,0.0004630302747096768,0.0103450812706313,-0.8292749969770528,-0.00029758101296396887,0.5587449061313703,0.011981997695448311,-0.009082616818601813,-0.0020907729483922084,-0.0034614198323880364,0.003912830876422471,-0.0013055186064287252,-0.009082616818601813,0.009856527496722646,0.001357609566741299,0.004343366954308922,-0.0023107581640192626,0.0014659601593054543,-0.0020907729483922084,0.001357609566741299,0.0019140011642218091,0.0001887210973184908,-0.0019822519938873275,0.0018072477090203278,-0.0034614198323880364,0.004343366954308922,0.0001887210973184908,0.0029940367259919986,-0.0005330264324586702,-0.00044248992226442803,0.003912830876422471,-0.0023107581640192626,-0.0019822519938873275,-0.0005330264324586702,0.0034613448757006447,-0.0020813892182832867,-0.0013055186064287252,0.0014659601593054543,0.0018072477090203278,-0.00044248992226442803,-0.0020813892182832867,0.0039898145858310394,0.004060798539597553,-0.010604328464846177,0.002376916836966171,0.0,0.0,0.0,0.0740503853487809,-0.045658190459771916,-0.009549434365966987,0.0,0.0,0.0,-0.045658190459771916,0.06015583664637323,0.006904665112342328,0.0,0.0,0.0,-0.009549434365966987,0.006904665112342328,0.006605567373785884,0.0,0.0,0.0,0.0,0.0,0.0,0.0,0.0,0.0,0.0,0.0,0.0,0.0,0.0,0.0,0.0,0.0,0.0,0.0,0.0,0.0
1403715275162143000,18,1403715275162143000,world,odom,0.0024918116305191213,-0.0051505773586562826,0.0006163903292014303,0.01034932928653858,-0.8292747073788493,-0.0003389509360345208,0.5587452337132779,0.014902315238457519,-0.011025943843622609,-0.002666168731808782,-0.003979611911817197,0.004942566571902713,-0.0018134634319421448,-0.011025943843622609,0.012122233933227108,0.0017794729498491705,0.004978811124274271,-0.0029196444569797196,0.0021748467994583236,-0.002666168731808782,0.0017794729498491705,0.002238245340216907,0.00020958419760789578,-0.002224429176607094,0.002023247875765276,-0.003979611911817197,0.004978811124274271,0.00020958419760789578,0.0033591627524169596,-0.0005979035422432633,-0.0004959703236156907,0.004942566571902713,-0.0029196444569797196,-0.002224429176607094,-0.0005979035422432633,0.0038832686663192078,-0.0023342862081171686,-0.0018134634319421448,0.0021748467994583236,0.002023247875765276,-0.0004959703236156907,-0.0023342862081171686,0.0044756103664822695,0.005567029562252166,-0.009339443335604571,0.003551161713832862,0.0,0.0,0.0,0.0902284358721946,-0.0552213757518775,-0.010770025514728658,0.0,0.0,0.0,-0.0552213757518775,0.07407508167456602,0.007812054201037901,0.0,0.0,0.0,-0.010770025514728658,0.007812054201037901,0.007263443586317924,0.0,0.0,0.0,0.0,0.0,0.0,0.0,0.0,0.0,0.0,0.0,0.0,0.0,0.0,0.0,0.0,0.0,0.0,0.0,0.0,0.0
1403715275212143000,19,1403715275212143000,world,odom,0.0017047878900024467,-0.00397410303118096,0.001044380120648215,0.009909595409572182,-0.8294067987215611,0.00010133179313960028,0.5585572055619175,0.012471087535294611,-0.009225631559591257,-0.0015933048097080374,-0.003577668044881691,0.0032393429668038467,-0.0005204733797889357,-0.009225631559591257,0.010633819758586176,0.0007774338124405879,0.004799018101695541,-0.001651826169198194,0.000569949939942171,-0.0015933048097080374,0.0007774338124405879,0.001821039231012359,0.0001330908989554426,-0.0014864949118740655,0.0010742475405764679,-0.003577668044881691,0.004799018101695541,0.0001330908989554426,0.0031865913171640397,-0.00047544926760239323,-0.00040935563868223473,0.0032393429668038467,-0.001651826169198194,-0.0014864949118740655,-0.00047544926760239323,0.0026347408045734,-0.0011844539266555047,-0.0005204733797889357,0.000569949939942171,0.0010742475405764679,-0.00040935563868223473,-0.0011844539266555047,0.002363783988335764,0.00258178935561398,-0.004383341026424228,0.003410945649914383,0.0,0.0,0.0,0.06336377085829979,-0.034102989985172125,-0.006792444158423373,0.0,0.0,0.0,-0.034102989985172125,0.04591984949096737,0.003462458361722139,0.0,0.0,0.0,-0.006792444158423373,0.003462458361722139,0.006446204063193649,0.0,0.0,0.0,0.0,0.0,0.0,0.0,0.0,0.0,0.0,0.0,0.0,0.0,0.0,0.0,0.0,0.0,0.0,0.0,0.0,0.0
1403715275262143000,20,1403715275262143000,world,odom,0.001806547297501453,-0.004195146156912782,0.0011813324990984197,0.009828424037786719,-0.8294290866581168,0.00017139747368347038,0.5585255257455309,0.014860051909818352,-0.010702247452629337,-0.001972860309807432,-0.0040085949088986775,0.003956886753098918,-0.0007623668997738789,-0.010702247452629337,0.01245071131763331,0.0009871029615624693,0.005378819175446307,-0.002006314254037357,0.0008990437966562234,-0.001972860309807432,0.0009871029615624693,0.002103742313995912,0.0001397666228952171,-0.001636665286221825,0.001178688413789465,-0.0040085949088986775,0.005378819175446307,0.0001397666228952171,0.0034940673127525634,-0.0005232748869824443,-0.000450983814673642,0.003956886753098918,-0.002006314254037357,-0.001636665286221825,-0.0005232748869824443,0.0028911158292258985,-0.0012981923121348454,-0.0007623668997738789,0.0008990437966562234,0.001178688413789465,-0.000450983814673642,-0.0012981923121348454,0.002595172269222461,0.0025695407336684506,-0.00436666357923524,0.0025708409536413877,0.0,0.0,0.0,0.07469415183505342,-0.039626077487527896,-0.007566452274061561,0.0,0.0,0.0,-0.039626077487527896,0.05391310636241543,0.0038640305725265093,0.0,0.0,0.0,-0.007566452274061561,0.0038640305725265093,0.00704167778219665,0.0,0.0,0.0,0.0,0.0,0.0,0.0,0.0,0.0,0.0,0.0,0.0,0.0,0.0,0.0,0.0,0.0,0.0,0.0,0.0,0.0
1403715275312143000,21,1403715275312143000,world,odom,0.001162458252004039,-0.0033701483501861894,0.001370756904643137,0.009696184959636653,-0.8294738071133385,0.00041867285650565045,0.5584612896371348,0.013378642967992365,-0.00971753043042034,-0.0013385278608906794,-0.003731190501965541,0.002972234427668284,-0.00019835208481211038,-0.00971753043042034,0.01169083943753245,0.00043882936734153345,0.005236038913378118,-0.0013730384181091394,0.00014946389375013647,-0.0013385278608906794,0.00043882936734153345,0.0019831777085763274,3.908843860864165e-05,-0.0013040402811040285,0.0008560337014954404,-0.003731190501965541,0.005236038913378118,3.908843860864165e-05,0.00341082843683919,-0.0004150227228338369,-0.0005042693192664474,0.002972234427668284,-0.0013730384181091394,-0.0013040402811040285,-0.0004150227228338369,0.0022780960456361644,-0.0008942127496180347,-0.00019835208481211038,0.00014946389375013647,0.0008560337014954404,-0.0005042693192664474,-0.0008942127496180347,0.0019060320253742927,0.0013795513857677852,-0.0015609689228759265,0.003196789081039224,0.0,0.0,0.0,0.059454063010594554,-0.029965301240186835,-0.005531770806982219,0.0,0.0,0.0,-0.029965301240186835,0.041434459874036364,0.0020806938000977916,0.0,0.0,0.0,-0.005531770806982219,0.0020806938000977916,0.0065720839925582555,0.0,0.0,0.0,0.0,0.0,0.0,0.0,0.0,0.0,0.0,0.0,0.0,0.0,0.0,0.0,0.0,0.0,0.0,0.0,0.0,0.0
1403715275362143000,22,1403715275362143000,world,odom,0.0012412889165994742,-0.003432584988406434,0.0015199323447091205,0.009661396715924614,-0.8294799099073478,0.0004434233604333705,0.558452808972539,0.01599838431610811,-0.011268790300980821,-0.0016978240231600248,-0.0041858774272871555,0.003673224924736884,-0.00039651208233728696,-0.011268790300980821,0.013705850424916755,0.0005932522544539814,0.00589141085948163,-0.0016846161476989456,0.00040808347633830826,-0.0016978240231600248,0.0005932522544539814,0.002319217148129236,3.408912631855748e-05,-0.0014407473194850075,0.0009411989771645986,-0.0041858774272871555,0.00589141085948163,3.408912631855748e-05,0.003745007501933364,-0.0004563388687676667,-0.0005540977222352893,0.003673224924736884,-0.0016846161476989456,-0.0014407473194850075,-0.0004563388687676667,0.0025018021017871642,-0.0009814622304494054,-0.00039651208233728696,0.00040808347633830826,0.0009411989771645986,-0.0005540977222352893,-0.0009814622304494054,0.002094480368164594,0.0012590567178761064,-0.000197914144950122,0.0017581418921485228,0.0,0.0,0.0,0.07063412109928323,-0.0349873569543121,-0.006231004845594697,0.0,0.0,0.0,-0.0349873569543121,0.04880874877988866,0.0023473832909601863,0.0,0.0,0.0,-0.006231004845594697,0.0023473832909601863,0.0072278624387493535,0.0,0.0,0.0,0.0,0.0,0.0,0.0,0.0,0.0,0.0,0.0,0.0,0.0,0.0,0.0,0.0,0.0,0.0,0.0,0.0,0.0
1403715275412143000,23,1403715275412143000,world,odom,0.0008407615224342681,-0.0028561020188321152,0.001425803432050468,0.009559324549962165,-0.8295543334452048,0.000552512976025134,0.5583439100642559,0.013747559508373669,-0.00992764714196039,-0.0009452344309033033,-0.0037757908258590463,0.002516234652000803,0.00012424204403728098,-0.00992764714196039,0.012427345402607327,2.5587546099806093e-05,0.005543068228149735,-0.0010516029423485933,-0.0003281973545182143,-0.0009452344309033033,2.5587546099806093e-05,0.0021609863926484356,-8.659281204607093e-05,-0.0011214034522762724,0.0006999719417738439,-0.0037757908258590463,0.005543068228149735,-8.659281204607093e-05,0.0035729633992238026,-0.00033329835023427517,-0.0006329591191156533,0.002516234652000803,-0.0010516029423485933,-0.0011214034522762724,-0.00033329835023427517,0.001910784844642034,-0.0006768545963261382,0.00012424204403728098,-0.0003281973545182143,0.0006999719417738439,-0.0006329591191156533,-0.0006768545963261382,0.0015844799204616671,0.00039838358079971256,0.0010238942492343502,0.0021718565140155257,0.0,0.0,0.0,0.05278584635550615,-0.025476642141134875,-0.004185811327951647,0.0,0.0,0.0,-0.025476642141134875,0.03604999860643083,0.0009316819119394525,0.0,0.0,0.0,-0.004185811327951647,0.0009316819119394525,0.006494113881718723,0.0,0.0,0.0,0.0,0.0,0.0,0.0,0.0,0.0,0.0,0.0,0.0,0.0,0.0,0.0,0.0,0.0,0.0,0.0,0.0,0.0
1403715275462143000,24,1403715275462143000,world,odom,0.0008675458295975934,-0.002727622186947457,0.0015671247860704293,0.00951460308306077,-0.8295420773892088,0.0005667168302235626,0.5583628685729398,0.016161258238980614,-0.011323649496554709,-0.0012230617634044249,-0.004188728046422292,0.0030978721894130683,-1.0230300748962127e-05,-0.011323649496554709,0.014332823563938188,0.00010243966126829072,0.006180554144005007,-0.0012905323988187146,-0.0001681234350221189,-0.0012230617634044249,0.00010243966126829072,0.002510360294886042,-0.0001060863085193895,-0.0012311656646487828,0.0007642353813410636,-0.004188728046422292,0.006180554144005007,-0.0001060863085193895,0.003892046557062759,-0.00036346864418302516,-0.0006898123969114611,0.0030978721894130683,-0.0012905323988187146,-0.0012311656646487828,-0.00036346864418302516,0.0020822288870903016,-0.0007369804703536376,-1.0230300748962127e-05,-0.0001681234350221189,0.0007642353813410636,-0.0006898123969114611,-0.0007369804703536376,0.001727301367276742,0.0004436026857072849,0.0026665166190016558,0.003705305345968763,0.0,0.0,0.0,0.06222768411314858,-0.02948628310123061,-0.004739999837385269,0.0,0.0,0.0,-0.02948628310123061,0.04200582631739138,0.0010778420976218475,0.0,0.0,0.0,-0.004739999837385269,0.0010778420976218475,0.00712075980731278,0.0,0.0,0.0,0.0,0.0,0.0,0.0,0.0,0.0,0.0,0.0,0.0,0.0,0.0,0.0,0.0,0.0,0.0,0.0,0.0,0.0
1403715275512143000,25,1403715275512143000,world,odom,0.00013222199824331773,-0.002434185167003178,0.0012585214933933282,0.009882596254640911,-0.8295964988015809,0.0005646780950913496,0.5582756170621059,0.01313210285879215,-0.0082762076784786,-0.0007948037157364564,-0.002361863624384536,0.0021444530740025477,-0.000274399216340949,-0.0082762076784786,0.0091238354222066,0.0001308373360531755,0.0028053314988463534,-0.0011389988021269677,0.00033755249418208335,-0.0007948037157364564,0.0001308373360531755,0.002359348834122913,0.0001239594241744311,-0.0009400842066609192,0.0005274783389434886,-0.002361863624384536,0.0028053314988463534,0.0001239594241744311,0.00151699324955416,-0.0004789928431851732,-1.4924069012050487e-05,0.0021444530740025477,-0.0011389988021269677,-0.0009400842066609192,-0.0004789928431851732,0.0014911808568576538,-0.0005643955271023985,-0.000274399216340949,0.00033755249418208335,0.0005274783389434886,-1.4924069012050487e-05,-0.0005643955271023985,0.0011279476118706154,-0.0008411334215278298,0.0038808328012286735,0.002544193031063415,0.0,0.0,0.0,0.04590846003611702,-0.022875876000263598,-0.003209005517007447,0.0,0.0,0.0,-0.022875876000263598,0.02846902420617243,0.0007678347427485049,0.0,0.0,0.0,-0.003209005517007447,0.0007678347427485049,0.006367781892057313,0.0,0.0,0.0,0.0,0.0,0.0,0.0,0.0,0.0,0.0,0.0,0.0,0.0,0.0,0.0,0.0,0.0,0.0,0.0,0.0,0.0
1403715275562143000,26,1403715275562143000,world,odom,0.00011375274029358901,-0.002249575015397062,0.0013218588721884935,0.00979388273742348,-0.8295857960249883,0.0005934924933766048,0.5582930544625935,0.015301028730073085,-0.009459438333000888,-0.0010213557968045612,-0.0026650746257278254,0.0026092243305382732,-0.00042465739697705935,-0.009459438333000888,0.010535357366975718,0.000207958039654098,0.003144729167195144,-0.0013668133383164481,0.0005315148014262232,-0.0010213557968045612,0.000207958039654098,0.0027198257012046407,0.0001280139688664247,-0.00102559078953605,0.0005705760874155302,-0.0026650746257278254,0.003144729167195144,0.0001280139688664247,0.0016425632854888347,-0.0005181242403012572,-1.5548576369391363e-05,0.0026092243305382732,-0.0013668133383164481,-0.00102559078953605,-0.0005181242403012572,0.0016126554398600893,-0.0006104317273002825,-0.00042465739697705935,0.0005315148014262232,0.0005705760874155302,-1.5548576369391363e-05,-0.0006104317273002825,0.0012216542331782382,0.00016831828503005342,0.005303309742329068,0.0011247092995041565,0.0,0.0,0.0,0.05353310723990372,-0.026546766604135304,-0.0036368817866056194,0.0,0.0,0.0,-0.026546766604135304,0.03326021580910697,0.0008732241002779346,0.0,0.0,0.0,-0.0036368817866056194,0.0008732241002779346,0.006962199229369225,0.0,0.0,0.0,0.0,0.0,0.0,0.0,0.0,0.0,0.0,0.0,0.0,0.0,0.0,0.0,0.0,0.0,0.0,0.0,0.0,0.0
1403715275612143000,27,1403715275612143000,world,odom,0.0001644768516215519,-0.0022897880767974964,0.0014733057547642453,0.00984346908713318,-0.8295990576522396,0.0005841544374340828,0.5582724858189232,0.013474494838695695,-0.008378080225545995,-0.0004632034584558032,-0.0023382322825359543,0.0018301074246719622,-4.729528448981826e-05,-0.008378080225545995,0.00950718942205613,-0.00018568414011936856,0.0029185297665384473,-0.0008831221037916268,8.809803724859503e-06,-0.0004632034584558032,-0.00018568414011936856,0.0025667146495458575,1.3643602014271202e-05,-0.0008502497039407548,0.0004703320822093842,-0.0023382322825359543,0.0029185297665384473,1.3643602014271202e-05,0.0016072282627610545,-0.0003733205002015423,-0.0001450361574193565,0.0018301074246719622,-0.0008831221037916268,-0.0008502497039407548,-0.0003733205002015423,0.0013248383110053533,-0.00046399976393417415,-4.729528448981826e-05,8.809803724859503e-06,0.0004703320822093842,-0.0001450361574193565,-0.00046399976393417415,0.0010427517076666512,0.0010476999688671172,0.005189872392438677,0.0014880715250373644,0.0,0.0,0.0,0.04168732630557091,-0.01985997952969236,-0.0024394287541654757,0.0,0.0,0.0,-0.01985997952969236,0.025173442317677437,0.000235880306052017,0.0,0.0,0.0,-0.0024394287541654757,0.000235880306052017,0.0061735575506815955,0.0,0.0,0.0,0.0,0.0,0.0,0.0,0.0,0.0,0.0,0.0,0.0,0.0,0.0,0.0,0.0,0.0,0.0,0.0,0.0,0.0
1403715275662143000,28,1403715275662143000,world,odom,0.00020137251393265125,-0.0020653192644349092,0.001536937867351709,0.009779507254538923,-0.8296022167778706,0.000642868538420387,0.5582688508909877,0.015487477348387445,-0.009437247217376772,-0.0006371709847764393,-0.002603885255557513,0.0022331586684553534,-0.00016201155101748995,-0.009437247217376772,0.010816043666588154,-0.0001526968689096997,0.0032378162397135035,-0.0010676855207672783,0.00015495955800852752,-0.0006371709847764393,-0.0001526968689096997,0.0029343814366428606,6.6489987884001185e-06,-0.0009231308035294613,0.0005059980249170191,-0.002603885255557513,0.0032378162397135035,6.6489987884001185e-06,0.0017301122048388232,-0.0004014823815034769,-0.0001558785832947117,0.0022331586684553534,-0.0010676855207672783,-0.0009231308035294613,-0.0004014823815034769,0.001426198582686922,-0.0004991299474732103,-0.00016201155101748995,0.00015495955800852752,0.0005059980249170191,-0.0001558785832947117,-0.0004991299474732103,0.0011228867876928346,0.0003352900985717082,0.004956174030458268,-0.00018823338795880462,0.0,0.0,0.0,0.048334553558923285,-0.022885196056937868,-0.002780197330963682,0.0,0.0,0.0,-0.022885196056937868,0.02920963566439561,0.000295356162091926,0.0,0.0,0.0,-0.002780197330963682,0.000295356162091926,0.006728082044904203,0.0,0.0,0.0,0.0,0.0,0.0,0.0,0.0,0.0,0.0,0.0,0.0,0.0,0.0,0.0,0.0,0.0,0.0,0.0,0.0,0.0
1403715275712143000,29,1403715275712143000,world,odom,-4.4395005016496303e-05,-0.003401693740778913,-5.898757620390716e-06,0.010144202250463258,-0.829628450067661,-0.00013751082750087973,0.5582237106123356,0.011201150513302277,-0.007700991856552292,-5.641877465903302e-05,-0.00288943052283344,0.0006719912292229944,0.0006705957542577277,-0.007700991856552292,0.009268598269731271,-0.000643517480573743,0.0027530621818593437,-0.00024208031848600242,-0.0005793214930751322,-5.641877465903302e-05,-0.000643517480573743,0.0024733500617806405,-0.00015191309914054342,-0.0007575737064046322,0.00017962533651517831,-0.00288943052283344,0.0027530621818593437,-0.00015191309914054342,0.0010037970142072932,-0.0001940280478828279,-0.00014618156856167084,0.0006719912292229944,-0.00024208031848600242,-0.0007575737064046322,-0.0001940280478828279,0.0007238645749692062,-0.0003445213609968023,0.0006705957542577277,-0.0005793214930751322,0.00017962533651517831,-0.00014618156856167084,-0.0003445213609968023,0.0005827773953435288,0.001057203080806282,-0.0025811073298463807,-0.0017997447964656558,0.0,0.0,0.0,0.021489450269495426,-0.009738758210273334,-0.0021784403767520946,0.0,0.0,0.0,-0.009738758210273334,0.015043772582981164,-0.0006683722213626933,0.0,0.0,0.0,-0.0021784403767520946,-0.0006683722213626933,0.005385034946812332,0.0,0.0,0.0,0.0,0.0,0.0,0.0,0.0,0.0,0.0,0.0,0.0,0.0,0.0,0.0,0.0,0.0,0.0,0.0,0.0,0.0
1403715275762143000,30,1403715275762143000,world,odom,4.1518052566169555e-05,-0.0034421726946073958,-5.120108469879657e-05,0.01011996864857308,-0.8296473526066674,-0.00010769415301354651,0.5581960631796585,0.012397196557957669,-0.008360609278057676,-0.0001767033830715768,-0.003134789399888124,0.0008443894453441082,0.0006532288628103209,-0.008360609278057676,0.010236039058610551,-0.0006950567790485192,0.0029944203121528732,-0.00031883068560068797,-0.000549086617915794,-0.0001767033830715768,-0.0006950567790485192,0.0028052013878067683,-0.00017020567858647373,-0.0008251036593938694,0.00018979100132771954,-0.003134789399888124,0.0029944203121528732,-0.00017020567858647373,0.0010762211893332733,-0.00020712866391666828,-0.00015615270221705166,0.0008443894453441082,-0.00031883068560068797,-0.0008251036593938694,-0.00020712866391666828,0.0007761648334214896,-0.00036879743401735377,0.0006532288628103209,-0.000549086617915794,0.00018979100132771954,-0.00015615270221705166,-0.00036879743401735377,0.0006243616838846208,0.002257506647016446,-0.0015965840574211879,-0.0010223462377273022,0.0,0.0,0.0,0.024585413540438958,-0.011113510229156751,-0.0025421060449861872,0.0,0.0,0.0,-0.011113510229156751,0.017101067913915618,-0.0007197817072621604,0.0,0.0,0.0,-0.0025421060449861872,-0.0007197817072621604,0.005866928567660498,0.0,0.0,0.0,0.0,0.0,0.0,0.0,0.0,0.0,0.0,0.0,0.0,0.0,0.0,0.0,0.0,0.0,0.0,0.0,0.0,0.0
1403715275812143000,31,1403715275812143000,world,odom,1.2724812129988756e-05,-0.0030196450739971223,0.00018794571065314827,0.010112301763691966,-0.8296661953823469,-5.8283005604317036e-05,0.5581682024228118,0.012290471242206634,-0.008402680091316,3.784913399706763e-05,-0.0030911120060593124,0.0007329928384555179,0.0006790394217978412,-0.008402680091316,0.01015823948507186,-0.0007784517327383524,0.0029684438359259386,-0.00023401739659014283,-0.0006658476694401358,3.784913399706763e-05,-0.0007784517327383524,0.002763037456419843,-0.00022738660480849798,-0.0007825674878150645,0.00021321053131021886,-0.0030911120060593124,0.0029684438359259386,-0.00022738660480849798,0.001063456142279776,-0.0001544017632271515,-0.0001989534196532477,0.0007329928384555179,-0.00023401739659014283,-0.0007825674878150645,-0.0001544017632271515,0.0007445111395719679,-0.0003651588753015505,0.0006790394217978412,-0.0006658476694401358,0.00021321053131021886,-0.0001989534196532477,-0.0003651588753015505,0.0006293695370392853,0.0021285382923683024,0.00047111423139848947,3.427095368597501e-05,0.0,0.0,0.0,0.02309786002556606,-0.010678819668337003,-0.002008344536240905,0.0,0.0,0.0,-0.010678819668337003,0.0154437964702341,-0.0006873434742511514,0.0,0.0,0.0,-0.002008344536240905,-0.0006873434742511514,0.005368251944300927,0.0,0.0,0.0,0.0,0.0,0.0,0.0,0.0,0.0,0.0,0.0,0.0,0.0,0.0,0.0,0.0,0.0,0.0,0.0,0.0,0.0
1403715275862143000,32,1403715275862143000,world,odom,0.00012223229387088626,-0.0029411697396289453,0.00023834993719383898,0.010084545531269244,-0.829569418337415,-3.494541079689383e-05,0.5583125297533353,0.013577335453577744,-0.009106228947908713,-7.895921728508626e-05,-0.003330415836029595,0.0009227570166214483,0.0006473545459359184,-0.009106228947908713,0.011155689919501454,-0.0008362131515362263,0.003207406934561693,-0.0003199194206530738,-0.0006293151223569688,-7.895921728508626e-05,-0.0008362131515362263,0.003109542312191601,-0.0002523629968511005,-0.0008461777140229706,0.0002265962218894894,-0.003330415836029595,0.003207406934561693,-0.0002523629968511005,0.0011347206608907066,-0.00016446041159657243,-0.00021185150034740092,0.0009227570166214483,-0.0003199194206530738,-0.0008461777140229706,-0.00016446041159657243,0.0007946584344361198,-0.0003891985070917421,0.0006473545459359184,-0.0006293151223569688,0.0002265962218894894,-0.00021185150034740092,-0.0003891985070917421,0.0006719428375137604,0.0029172416881184126,0.0027593409937575553,0.0029629650902181664,0.0,0.0,0.0,0.02642633034034089,-0.012197594502938893,-0.0023326133995973117,0.0,0.0,0.0,-0.012197594502938893,0.017540402549510548,-0.0007366336786807387,0.0,0.0,0.0,-0.0023326133995973117,-0.0007366336786807387,0.005829106517249996,0.0,0.0,0.0,0.0,0.0,0.0,0.0,0.0,0.0,0.0,0.0,0.0,0.0,0.0,0.0,0.0,0.0,0.0,0.0,0.0,0.0
1403715275912143000,33,1403715275912143000,world,odom,-0.0002284735227051902,-0.003104350844692649,0.0005592415437930123,0.010018200154216558,-0.8295248859035205,-9.116818535838431e-05,0.5583798805658952,0.01338299449371077,-0.009080621315437734,0.00016227840498099868,-0.003271407005732859,0.0007735874810710092,0.0007043798232762269,-0.009080621315437734,0.011024511130080229,-0.0009339233992577009,0.0031776962891142124,-0.00020884671622957557,-0.0007733138673363768,0.00016227840498099868,-0.0009339233992577009,0.0030394231205808494,-0.0003107266976269874,-0.0007882348012399698,0.000237517090174305,-0.003271407005732859,0.0031776962891142124,-0.0003107266976269874,0.0011280370089391905,-0.00010670152652058829,-0.00026237709367850695,0.0007735874810710092,-0.00020884671622957557,-0.0007882348012399698,-0.00010670152652058829,0.0007459234443511071,-0.0003713945982812938,0.0007043798232762269,-0.0007733138673363768,0.000237517090174305,-0.00026237709367850695,-0.0003713945982812938,0.0006671327728655346,0.0018693995661739845,0.0018684992724356977,0.0031955768486952173,0.0,0.0,0.0,0.024292575906661368,-0.011212123542380945,-0.0017770904783770592,0.0,0.0,0.0,-0.011212123542380945,0.015519155652867472,-0.0007488788844441569,0.0,0.0,0.0,-0.0017770904783770592,-0.0007488788844441569,0.005315827600420995,0.0,0.0,0.0,0.0,0.0,0.0,0.0,0.0,0.0,0.0,0.0,0.0,0.0,0.0,0.0,0.0,0.0,0.0,0.0,0.0,0.0
1403715275962143000,34,1403715275962143000,world,odom,-5.2940976629372674e-05,-0.0030388261670125792,0.0008381567295565696,0.010031564977598132,-0.8291963816701866,-0.00011567613757280326,0.5588673500466829,0.014875098858816082,-0.009881343458891408,4.0812914202033914e-05,-0.0035215810947184455,0.00098986103383032,0.0006569660797602038,-0.009881343458891408,0.012141633472066073,-0.001007858209601811,0.0034354074888789873,-0.0003028503818058683,-0.0007282388751511226,4.0812914202033914e-05,-0.001007858209601811,0.003435099525780198,-0.00034392184239580076,-0.0008535455876205602,0.00025350061272213283,-0.0035215810947184455,0.0034354074888789873,-0.00034392184239580076,0.0012066576330044424,-0.00011349848323804224,-0.00027962593995193663,0.00098986103383032,-0.0003028503818058683,-0.0008535455876205602,-0.00011349848323804224,0.0007980190619621161,-0.0003967525138093743,0.0006569660797602038,-0.0007282388751511226,0.00025350061272213283,-0.00027962593995193663,-0.0003967525138093743,0.0007132620981416891,0.002665729123258741,0.0012431768998785384,0.0016911966720908806,0.0,0.0,0.0,0.028012548510127206,-0.012902886104519427,-0.002096985701462549,0.0,0.0,0.0,-0.012902886104519427,0.017790718879586994,-0.0007964849192563823,0.0,0.0,0.0,-0.002096985701462549,-0.0007964849192563823,0.005800931761262743,0.0,0.0,0.0,0.0,0.0,0.0,0.0,0.0,0.0,0.0,0.0,0.0,0.0,0.0,0.0,0.0,0.0,0.0,0.0,0.0,0.0
1403715276012143000,35,1403715276012143000,world,odom,0.0001010662077878816,-0.003818600002070596,0.0004911656241971951,0.009878148138062112,-0.829109969428352,-0.00013452294283807978,0.5589982671596199,0.013540299615214003,-0.00933811428888336,-7.096887364320924e-05,-0.0032368344305744854,0.0004934624479263976,0.0009140720573219522,-0.00933811428888336,0.010865096245424477,-0.0009179724967747384,0.003284330517359744,0.00011496653728995004,-0.0012056865532333162,-7.096887364320924e-05,-0.0009179724967747384,0.002866974628737348,-0.00028758550649949006,-0.0009294972801602488,0.00036170946725500453,-0.0032368344305744854,0.003284330517359744,-0.00028758550649949006,0.0011545340893847121,9.247727379858353e-06,-0.0003731036008116091,0.0004934624479263976,0.00011496653728995004,-0.0009294972801602488,9.247727379858353e-06,0.000586992657399902,-0.0002495736320188212,0.0009140720573219522,-0.0012056865532333162,0.00036170946725500453,-0.0003731036008116091,-0.0002495736320188212,0.000581043614665998,0.00032052040990844814,0.003643517112561603,0.0037184903488762227,0.0,0.0,0.0,0.020373223789868368,-0.007776728263147504,-0.002785570871967679,0.0,0.0,0.0,-0.007776728263147504,0.010529929621014716,8.840370848051506e-05,0.0,0.0,0.0,-0.002785570871967679,8.840370848051506e-05,0.0043476891477414285,0.0,0.0,0.0,0.0,0.0,0.0,0.0,0.0,0.0,0.0,0.0,0.0,0.0,0.0,0.0,0.0,0.0,0.0,0.0,0.0,0.0
1403715276062143000,36,1403715276062143000,world,odom,0.00011603846032276575,-0.0037922876985855888,0.0005137279665762865,0.009918625168820609,-0.8292714912505507,-0.0002892535826108061,0.5587578464829048,0.014727688594637038,-0.009933710844327015,-0.00024278453670970314,-0.00341996322808453,0.0006365593132607596,0.0009092923668163665,-0.009933710844327015,0.011644055129444103,-0.0009491114852594696,0.003493726618188681,8.08587343546626e-05,-0.0012192355076622564,-0.00024278453670970314,-0.0009491114852594696,0.0031680537120813063,-0.00031005501906205646,-0.0010004296449090777,0.00038933005943117956,-0.00341996322808453,0.003493726618188681,-0.00031005501906205646,0.0012224121326321286,9.992412608993222e-06,-0.00039498489782910503,0.0006365593132607596,8.08587343546626e-05,-0.0010004296449090777,9.992412608993222e-06,0.000622586003573908,-0.0002642010525758538,0.0009092923668163665,-0.0012192355076622564,0.00038933005943117956,-0.00039498489782910503,-0.0002642010525758538,0.0006163163185698696,-0.0011024137577178273,0.0026943963273321015,-0.005655741626793429,0.0,0.0,0.0,0.022951275396853422,-0.008643998739174007,-0.003169180665654101,0.0,0.0,0.0,-0.008643998739174007,0.011791844015802974,0.00015602291464180464,0.0,0.0,0.0,-0.003169180665654101,0.00015602291464180464,0.004711093727052439,0.0,0.0,0.0,0.0,0.0,0.0,0.0,0.0,0.0,0.0,0.0,0.0,0.0,0.0,0.0,0.0,0.0,0.0,0.0,0.0,0.0
1403715276112143000,37,1403715276112143000,world,odom,-0.0013390149959294157,0.0006154823205556101,0.000519933969034012,0.010550075064339196,-0.8294892631162138,-0.0001123165057465832,0.5584229988781442,0.0031265375767938848,-0.0018984400203846837,0.0009924015251924,-0.0006575553793617244,0.00036204479909101336,-0.00016565567932410165,-0.0018984400203846837,0.002739531355346103,-0.0010575100771762938,0.0009493818449264669,-7.570878492717468e-05,8.859512844306139e-05,0.0009924015251924,-0.0010575100771762938,0.002446005614599838,-0.0003861779539687928,-0.0006305889889946573,0.00023903560779506842,-0.0006575553793617244,0.0009493818449264669,-0.0003861779539687928,0.00044350900629881414,-2.623866592022239e-05,-2.1529478672671734e-05,0.00036204479909101336,-7.570878492717468e-05,-0.0006305889889946573,-2.623866592022239e-05,0.00043750380023346137,-0.000148078227572268,-0.00016565567932410165,8.859512844306139e-05,0.00023903560779506842,-2.1529478672671734e-05,-0.000148078227572268,0.0003518384361230391,0.001172743354553615,0.005588096148760252,-0.004781528467640189,0.0,0.0,0.0,0.009810028663311824,-0.0037010574491093007,5.551482765802637e-06,0.0,0.0,0.0,-0.0037010574491093007,0.006972242847925792,-0.0007515903268507152,0.0,0.0,0.0,5.551482765802637e-06,-0.0007515903268507152,0.0036495835459893645,0.0,0.0,0.0,0.0,0.0,0.0,0.0,0.0,0.0,0.0,0.0,0.0,0.0,0.0,0.0,0.0,0.0,0.0,0.0,0.0,0.0
1403715276162143000,38,1403715276162143000,world,odom,-0.001204692226119388,0.0008301492337271727,0.00027259398897364696,0.010416484992369244,-0.8294104285891407,-5.912351669017083e-05,0.5585425984581582,0.0035710206670467224,-0.0021188905343466715,0.0010066677789644088,-0.000699912448920959,0.00046105273265905684,-0.00020968155104030196,-0.0021188905343466715,0.0030934680530401125,-0.0011403435512296,0.0010287707436506394,-0.00010572425260563551,0.0001477650805376653,0.0010066677789644088,-0.0011403435512296,0.002710307786529334,-0.00041653453771427825,-0.0006750754022866372,0.00025620376530128023,-0.000699912448920959,0.0010287707436506394,-0.00041653453771427825,0.0004718089306655787,-2.7789390622631844e-05,-2.2663780822240127e-05,0.00046105273265905684,-0.00010572425260563551,-0.0006750754022866372,-2.7789390622631844e-05,0.0004651037372812352,-0.00015712827495894735,-0.00020968155104030196,0.0001477650805376653,0.00025620376530128023,-2.2663780822240127e-05,-0.00015712827495894735,0.00037479508010180966,0.0023283326102220437,0.005641602323727531,-0.004886982809949942,0.0,0.0,0.0,0.01151443988734384,-0.004294321772766931,-0.00012738719166261478,0.0,0.0,0.0,-0.004294321772766931,0.00827106172103127,-0.0007848162917990989,0.0,0.0,0.0,-0.00012738719166261478,-0.0007848162917990989,0.004004418907577806,0.0,0.0,0.0,0.0,0.0,0.0,0.0,0.0,0.0,0.0,0.0,0.0,0.0,0.0,0.0,0.0,0.0,0.0,0.0,0.0,0.0
1403715276212143000,39,1403715276212143000,world,odom,-0.002621155728558564,0.002658126187194348,5.666644012002211e-05,0.01072315246517787,-0.829590763849159,8.204888809771041e-05,0.5582689063572835,0.0017272471043274307,-0.0012838451139528999,-0.00015325071741333448,-0.0003983239288813273,0.0003903998300157903,-0.00016043026902156415,-0.0012838451139528999,0.001328005804548089,3.236444042684033e-05,0.0005063426647281424,-0.0002628189819157249,4.2769633302496135e-05,-0.00015325071741333448,3.236444042684033e-05,0.0003237184119867097,-1.6095774648292866e-05,-0.00020086802513443982,0.00014797954892771737,-0.0003983239288813273,0.0005063426647281424,-1.6095774648292866e-05,0.0003223594780095263,-7.887816327599326e-05,-5.3860650954388025e-05,0.0003903998300157903,-0.0002628189819157249,-0.00020086802513443982,-7.887816327599326e-05,0.0002986510504666907,-0.00010985912237094174,-0.00016043026902156415,4.2769633302496135e-05,0.00014797954892771737,-5.3860650954388025e-05,-0.00010985912237094174,0.0003342192367220992,-0.0005269256481459363,0.006555331210433893,-0.0024764588290099175,0.0,0.0,0.0,0.006885312652617372,-0.0036122558729450244,-9.396565015834133e-05,0.0,0.0,0.0,-0.0036122558729450244,0.004749263543892391,0.00016908672367296692,0.0,0.0,0.0,-9.396565015834133e-05,0.00016908672367296692,0.0013030277611201834,0.0,0.0,0.0,0.0,0.0,0.0,0.0,0.0,0.0,0.0,0.0,0.0,0.0,0.0,0.0,0.0,0.0,0.0,0.0,0.0,0.0
1403715276262143000,40,1403715276262143000,world,odom,-0.0026811512278428567,0.0029930675408465198,-0.00012049423798442924,0.010619530989951251,-0.8296070231747992,0.0001852144889038107,0.5582467002644933,0.0019738711873690056,-0.0014517449187859228,-0.00019982255183744648,-0.00042483496668140205,0.00045774346410230675,-0.00019509981381796813,-0.0014517449187859228,0.0014671248416587353,6.395127965448827e-05,0.0005337953264902902,-0.0003000227072004962,8.858750511781668e-05,-0.00019982255183744648,6.395127965448827e-05,0.00033241899091324134,-1.3565919684826514e-05,-0.00020660318134976002,0.0001546772215909346,-0.00042483496668140205,0.0005337953264902902,-1.3565919684826514e-05,0.00034035031483561684,-8.306924127723914e-05,-5.662667049531179e-05,0.00045774346410230675,-0.0003000227072004962,-0.00020660318134976002,-8.306924127723914e-05,0.00031539136228692175,-0.00011550756493079522,-0.00019509981381796813,8.858750511781668e-05,0.0001546772215909346,-5.662667049531179e-05,-0.00011550756493079522,0.00035309839000519626,-0.0012807974662172603,0.00964530770096485,-0.003748789412128563,0.0,0.0,0.0,0.007994306610233011,-0.004139335993142093,-8.875130856951733e-05,0.0,0.0,0.0,-0.004139335993142093,0.00562472662087582,0.0001850517732378419,0.0,0.0,0.0,-8.875130856951733e-05,0.0001850517732378419,0.0015044922367339016,0.0,0.0,0.0,0.0,0.0,0.0,0.0,0.0,0.0,0.0,0.0,0.0,0.0,0.0,0.0,0.0,0.0,0.0,0.0,0.0,0.0
1403715276312143000,41,1403715276312143000,world,odom,-0.0026926493405107325,0.003348937318758545,-0.000394876517002811,0.010646864119371848,-0.8296682995844139,0.00013305371670713147,0.5581551211319659,0.0022138524751587644,-0.0016058559698704125,-0.00022752128953584073,-0.00045280808748743816,0.0005094684046210123,-0.0002014533043198571,-0.0016058559698704125,0.0016170996150514367,8.25814594572771e-05,0.0005649937136119535,-0.0003232905287153709,0.00012032920336694769,-0.00022752128953584073,8.25814594572771e-05,0.00034152701271174317,-1.068032702256485e-05,-0.000203575213026097,0.00015000071795342006,-0.00045280808748743816,0.0005649937136119535,-1.068032702256485e-05,0.0003588479554722012,-8.689965666200568e-05,-5.772617801759373e-05,0.0005094684046210123,-0.0003232905287153709,-0.000203575213026097,-8.689965666200568e-05,0.00032277465751198394,-0.00010965157084837749,-0.0002014533043198571,0.00012032920336694769,0.00015000071795342006,-5.772617801759373e-05,-0.00010965157084837749,0.0003540259842999203,-0.0016376037760442639,0.008698946711726314,-0.003664894068065732,0.0,0.0,0.0,0.008728376312621808,-0.0042410649037841,-3.620724107096742e-05,0.0,0.0,0.0,-0.0042410649037841,0.006090429180434795,0.00017088056194768542,0.0,0.0,0.0,-3.620724107096742e-05,0.00017088056194768542,0.001696856128153561,0.0,0.0,0.0,0.0,0.0,0.0,0.0,0.0,0.0,0.0,0.0,0.0,0.0,0.0,0.0,0.0,0.0,0.0,0.0,0.0,0.0
