%time,field.header.seq,field.header.stamp,field.header.frame_id,field.child_frame_id,field.pose.pose.position.x,field.pose.pose.position.y,field.pose.pose.position.z,field.pose.pose.orientation.x,field.pose.pose.orientation.y,field.pose.pose.orientation.z,field.pose.pose.orientation.w,field.pose.covariance0,field.pose.covariance1,field.pose.covariance2,field.pose.covariance3,field.pose.covariance4,field.pose.covariance5,field.pose.covariance6,field.pose.covariance7,field.pose.covariance8,field.pose.covariance9,field.pose.covariance10,field.pose.covariance11,field.pose.covariance12,field.pose.covariance13,field.pose.covariance14,field.pose.covariance15,field.pose.covariance16,field.pose.covariance17,field.pose.covariance18,field.pose.covariance19,field.pose.covariance20,field.pose.covariance21,field.pose.covariance22,field.pose.covariance23,field.pose.covariance24,field.pose.covariance25,field.pose.covariance26,field.pose.covariance27,field.pose.covariance28,field.pose.covariance29,field.pose.covariance30,field.pose.covariance31,field.pose.covariance32,field.pose.covariance33,field.pose.covariance34,field.pose.covariance35,field.twist.twist.linear.x,field.twist.twist.linear.y,field.twist.twist.linear.z,field.twist.twist.angular.x,field.twist.twist.angular.y,field.twist.twist.angular.z,field.twist.covariance0,field.twist.covariance1,field.twist.covariance2,field.twist.covariance3,field.twist.covariance4,field.twist.covariance5,field.twist.covariance6,field.twist.covariance7,field.twist.covariance8,field.twist.covariance9,field.twist.covariance10,field.twist.covariance11,field.twist.covariance12,field.twist.covariance13,field.twist.covariance14,field.twist.covariance15,field.twist.covariance16,field.twist.covariance17,field.twist.covariance18,field.twist.covariance19,field.twist.covariance20,field.twist.covariance21,field.twist.covariance22,field.twist.covariance23,field.twist.covariance24,field.twist.covariance25,field.twist.covariance26,field.twist.covariance27,field.twist.covariance28,field.twist.covariance29,field.twist.covariance30,field.twist.covariance31,field.twist.covariance32,field.twist.covariance33,field.twist.covariance34,field.twist.covariance35
1403638135195097000,5875,1403638135195097000,world,odom,-294587.6218056669,-9215999.859818788,-8323796.502299418,-0.18004240769268293,-0.7963906781986448,0.15262852089417672,0.556822371784917,29.658717519989107,-0.6842740080152079,0.042944620391948754,-0.012080482689841526,0.03207439739012358,0.006530340603021975,-0.6842740080152079,31.694514209048144,-3.3409447215588086,0.02432727375495059,-0.01377967995466978,0.05676534062927034,0.042944620391948754,-3.3409447215588086,26.602316025353964,-0.01307847705754257,0.004727897424184505,-0.027757408396704018,-0.012080482689841526,0.02432727375495059,-0.01307847705754257,0.0026946294436852266,-0.0001303356745230294,-0.0008058656279106393,0.03207439739012358,-0.01377967995466978,0.004727897424184505,-0.0001303356745230294,0.0003176457821190372,-3.170449009863124e-05,0.006530340603021975,0.05676534062927034,-0.027757408396704018,-0.0008058656279106393,-3.170449009863124e-05,0.001053580967366754,155135.45054646637,211317.21512347148,-119876.25241916237,0.0,0.0,0.0,1.433797669450928,-0.07821065114572404,-0.0009342838436876165,0.0,0.0,0.0,-0.07821065114572404,1.8269975261722637,-0.4202635052447955,0.0,0.0,0.0,-0.0009342838436876165,-0.4202635052447955,1.0794354534417367,0.0,0.0,0.0,0.0,0.0,0.0,0.0,0.0,0.0,0.0,0.0,0.0,0.0,0.0,0.0,0.0,0.0,0.0,0.0,0.0,0.0
1403638135245097000,5876,1403638135245097000,world,odom,-286830.85533838545,-9205434.002728153,-8329790.311200926,-0.17734559830864524,-0.7987047874474582,0.15153013195338294,0.554669108910213,30.26280337990403,-0.7078132936264468,0.04369514312753354,-0.012323696389196174,0.03279669649271444,0.006676584713223082,-0.7078132936264468,32.3915394117764,-3.459375334619643,0.025427446111664545,-0.013973252677296107,0.05810317717627643,0.04369514312753354,-3.459375334619643,27.10417518050883,-0.013601620693578235,0.004754508587479916,-0.02835853309636718,-0.012323696389196174,0.025427446111664545,-0.013601620693578235,0.0027220840791218775,-0.00011932658905442384,-0.0008258227378598727,0.03279669649271444,-0.013973252677296107,0.004754508587479916,-0.00011932658905442384,0.00032172010599058084,-3.568918231764507e-05,0.006676584713223082,0.05810317717627643,-0.02835853309636718,-0.0008258227378598727,-3.568918231764507e-05,0.001078569113691559,155135.50004982413,211317.47399802975,-119876.33235649443,0.0,0.0,0.0,1.4540511145971162,-0.08006898239948383,-0.0010846633762870944,0.0,0.0,0.0,-0.08006898239948383,1.8571922153955243,-0.4316525330496126,0.0,0.0,0.0,-0.0010846633762870944,-0.4316525330496126,1.0935059716809457,0.0,0.0,0.0,0.0,0.0,0.0,0.0,0.0,0.0,0.0,0.0,0.0,0.0,0.0,0.0,0.0,0.0,0.0,0.0,0.0,0.0
1403638135295097000,5877,1403638135295097000,world,odom,-279074.05014599854,-9194868.081924088,-8335784.152459556,-0.17630482991598498,-0.7986599618580301,0.14970845485465187,0.5555594035008837,30.87731256592528,-0.7318874484400282,0.04454144416337317,-0.012585714739303002,0.03354344043571535,0.006757793887008847,-0.7318874484400282,33.101942600712704,-3.5813789623492407,0.026028785972129927,-0.014261913751228466,0.059666759057230276,0.04454144416337317,-3.5813789623492407,27.613861521535036,-0.013897897590490543,0.004829941865065728,-0.02907721723317174,-0.012585714739303002,0.026028785972129927,-0.013897897590490543,0.0027624309881219378,-0.00011092436287118748,-0.0008326862945367552,0.03354344043571535,-0.014261913751228466,0.004829941865065728,-0.00011092436287118748,0.00032633642218806276,-4.017446948193546e-05,0.006757793887008847,0.059666759057230276,-0.02907721723317174,-0.0008326862945367552,-4.017446948193546e-05,0.0010903428274165264,155135.53948424023,211317.72987210486,-119876.40861090971,0.0,0.0,0.0,1.4746049327796726,-0.08189912458640168,-0.0011296603620366535,0.0,0.0,0.0,-0.08189912458640168,1.88795238317705,-0.4432228772584935,0.0,0.0,0.0,-0.0011296603620366535,-0.4432228772584935,1.1076746400865662,0.0,0.0,0.0,0.0,0.0,0.0,0.0,0.0,0.0,0.0,0.0,0.0,0.0,0.0,0.0,0.0,0.0,0.0,0.0,0.0,0.0
1403638135345097000,5878,1403638135345097000,world,odom,-271317.27924512053,-9184302.199804481,-8341777.968570017,-0.17744213576524803,-0.797290358448607,0.14813195625640563,0.5575834433657524,31.50272985862593,-0.7565066902623684,0.045285418562071675,-0.012754194405048033,0.034348659044296556,0.006839333630670918,-0.7565066902623684,33.826468253885736,-3.707168739255578,0.026350860495001627,-0.014731294395248229,0.06134694243715559,0.045285418562071675,-3.707168739255578,28.131479362699487,-0.014066488446306848,0.004996467266784985,-0.029860646092551374,-0.012754194405048033,0.026350860495001627,-0.014066488446306848,0.0028086706683722127,-0.00011070843130655964,-0.0008333190038175782,0.034348659044296556,-0.014731294395248229,0.004996467266784985,-0.00011070843130655964,0.00033205727786629575,-4.2780058073688254e-05,0.006839333630670918,0.06134694243715559,-0.029860646092551374,-0.0008333190038175782,-4.2780058073688254e-05,0.0010957358048911115,155135.59200922266,211317.95814012215,-119876.46400550922,0.0,0.0,0.0,1.4955674835043296,-0.08378734981224664,-0.0014068204764453546,0.0,0.0,0.0,-0.08378734981224664,1.9203974382092617,-0.4545764353415987,0.0,0.0,0.0,-0.0014068204764453546,-0.4545764353415987,1.1214003638970258,0.0,0.0,0.0,0.0,0.0,0.0,0.0,0.0,0.0,0.0,0.0,0.0,0.0,0.0,0.0,0.0,0.0,0.0,0.0,0.0,0.0
1403638135395097000,5879,1403638135395097000,world,odom,-263560.5060158227,-9173736.306170149,-8347771.787348335,-0.17834809243749186,-0.7968527891545901,0.1452780367692421,0.5586697435631651,32.138782550398766,-0.7820122215186662,0.04610744910077002,-0.0129752709173701,0.035125645889607544,0.007032305585999341,-0.7820122215186662,34.56515597996621,-3.8366658638214037,0.026835963090349524,-0.01531619227274401,0.06296333242175081,0.04610744910077002,-3.8366658638214037,28.657019725849672,-0.014310351702599308,0.005215422025601451,-0.030615731664498838,-0.0129752709173701,0.026835963090349524,-0.014310351702599308,0.002851960369460979,-0.00010391012281194346,-0.0008375804961710926,0.035125645889607544,-0.01531619227274401,0.005215422025601451,-0.00010391012281194346,0.00033763135161473724,-4.8591900992712034e-05,0.007032305585999341,0.06296333242175081,-0.030615731664498838,-0.0008375804961710926,-4.8591900992712034e-05,0.0011044452771359122,155135.63361876464,211318.19348653528,-119876.51280499359,0.0,0.0,0.0,1.5170317220919294,-0.08569510142719385,-0.0015498655853234751,0.0,0.0,0.0,-0.08569510142719385,1.9536310298762778,-0.46641242189732657,0.0,0.0,0.0,-0.0015498655853234751,-0.46641242189732657,1.1354485915991799,0.0,0.0,0.0,0.0,0.0,0.0,0.0,0.0,0.0,0.0,0.0,0.0,0.0,0.0,0.0,0.0,0.0,0.0,0.0,0.0,0.0
1403638135445097000,5880,1403638135445097000,world,odom,-255803.73049096233,-9163170.40077497,-8353765.608809513,-0.17764177923844407,-0.7988125808983587,0.1398646623027267,0.5574762193192166,32.78608466832172,-0.8080587809619287,0.046815061302035554,-0.01336527650851699,0.035817300359308135,0.007449427647042816,-0.8080587809619287,35.31863108236149,-3.970185376741396,0.027793471799058854,-0.01600361369132614,0.0643924476714022,0.046815061302035554,-3.970185376741396,29.190719016637026,-0.014770796344606475,0.005475169246421364,-0.03128185665296419,-0.01336527650851699,0.027793471799058854,-0.014770796344606475,0.002886725061987253,-7.980250426384159e-05,-0.0008521096442396428,0.035817300359308135,-0.01600361369132614,0.005475169246421364,-7.980250426384159e-05,0.0003428149105659526,-6.154936068666198e-05,0.007449427647042816,0.0643924476714022,-0.03128185665296419,-0.0008521096442396428,-6.154936068666198e-05,0.0011226828045691457,155135.67753939627,211318.4245292737,-119876.56856726539,0.0,0.0,0.0,1.538622451856945,-0.08759623206654896,-0.001751282727790939,0.0,0.0,0.0,-0.08759623206654896,1.9870660031788723,-0.4783073658783806,0.0,0.0,0.0,-0.001751282727790939,-0.4783073658783806,1.1495769887775897,0.0,0.0,0.0,0.0,0.0,0.0,0.0,0.0,0.0,0.0,0.0,0.0,0.0,0.0,0.0,0.0,0.0,0.0,0.0,0.0,0.0
1403638135495097000,5881,1403638135495097000,world,odom,-248046.98387860146,-9152604.471229276,-8359759.439924448,-0.1743318098540026,-0.8011779283559224,0.13724212001419367,0.5557759869608888,33.283910646148385,-0.8509902537946769,0.0624227538512129,-0.008932575156937007,0.034387152074122074,0.00500062352223837,-0.8509902537946769,36.02987265906253,-4.080735316960999,0.031615457345239475,-0.016514252651881965,0.0638481968689937,0.0624227538512129,-4.080735316960999,29.71950185889663,-0.016733837013053598,0.0057528776845375,-0.03091795778878851,-0.008932575156937007,0.031615457345239475,-0.016733837013053598,0.0026314713478558277,-9.395546437298338e-06,-0.0006987381419912867,0.034387152074122074,-0.016514252651881965,0.0057528776845375,-9.395546437298338e-06,0.000317738505179691,-0.0001005503371783812,0.00500062352223837,0.0638481968689937,-0.03091795778878851,-0.0006987381419912867,-0.0001005503371783812,0.0010369091054195935,155135.68904281157,211318.63776718074,-119876.60285136667,0.0,0.0,0.0,1.5403447083991955,-0.09170512877390677,0.0005193007577846216,0.0,0.0,0.0,-0.09170512877390677,2.0130699157268177,-0.4859548513852563,0.0,0.0,0.0,0.0005193007577846216,-0.4859548513852563,1.1613145352387526,0.0,0.0,0.0,0.0,0.0,0.0,0.0,0.0,0.0,0.0,0.0,0.0,0.0,0.0,0.0,0.0,0.0,0.0,0.0,0.0,0.0
1403638135545097000,5882,1403638135545097000,world,odom,-240290.1324093464,-9142038.450476447,-8365753.316877875,-0.17336891476600064,-0.8042494934127201,0.1355644057206044,0.552040092420706,33.93710187288366,-0.8908660023984774,0.07075505245653047,-0.009526325774155622,0.03497123815329041,0.005028025394839722,-0.8908660023984774,36.79730533414272,-4.213617275420162,0.03268428426404505,-0.016908453503753012,0.06506605530907125,0.07075505245653047,-4.213617275420162,30.264898144907093,-0.01725672221909265,0.005889223680754724,-0.03142707557160282,-0.009526325774155622,0.03268428426404505,-0.01725672221909265,0.0026398737659850168,-3.7839479119635255e-06,-0.000725258562657619,0.03497123815329041,-0.016908453503753012,0.005889223680754724,-3.7839479119635255e-06,0.00031982516731167296,-0.00010735473045991322,0.005028025394839722,0.06506605530907125,-0.03142707557160282,-0.000725258562657619,-0.00010735473045991322,0.0010638160153102043,155135.7311140868,211318.91015204464,-119876.614064442,0.0,0.0,0.0,1.5610852843120757,-0.09615492754490007,0.0018668014516687362,0.0,0.0,0.0,-0.09615492754490007,2.0476687933459754,-0.49815233429377614,0.0,0.0,0.0,0.0018668014516687362,-0.49815233429377614,1.1755408102422489,0.0,0.0,0.0,0.0,0.0,0.0,0.0,0.0,0.0,0.0,0.0,0.0,0.0,0.0,0.0,0.0,0.0,0.0,0.0,0.0,0.0
1403638135595097000,5883,1403638135595097000,world,odom,-232533.35270852037,-9131472.50834846,-8371747.142397452,-0.17232264507656309,-0.8072643351446027,0.13008302833038263,0.5492791684906285,34.61433487290144,-0.9217390225812516,0.07265474297440662,-0.009939586062684542,0.03569205871032187,0.005435145227050551,-0.9217390225812516,37.59453149866052,-4.3583439442644245,0.03409506488951393,-0.01756016211288136,0.0663604886887103,0.07265474297440662,-4.3583439442644245,30.82279377099501,-0.017889231610639773,0.006127419597529061,-0.03203794143710104,-0.009939586062684542,0.03409506488951393,-0.017889231610639773,0.0026657290756562256,1.8363416030747857e-05,-0.0007413089703227371,0.03569205871032187,-0.01756016211288136,0.006127419597529061,1.8363416030747857e-05,0.00032686468148284607,-0.00011984023150517745,0.005435145227050551,0.0663604886887103,-0.03203794143710104,-0.0007413089703227371,-0.00011984023150517745,0.0010843565427944982,155135.75521252467,211319.15772926758,-119876.6298092253,0.0,0.0,0.0,1.5838779189100551,-0.09855635099341441,0.002100505261846205,0.0,0.0,0.0,-0.09855635099341441,2.084649475743523,-0.5115753171345285,0.0,0.0,0.0,0.002100505261846205,-0.5115753171345285,1.1904520509309524,0.0,0.0,0.0,0.0,0.0,0.0,0.0,0.0,0.0,0.0,0.0,0.0,0.0,0.0,0.0,0.0,0.0,0.0,0.0,0.0,0.0
1403638135645097000,5884,1403638135645097000,world,odom,-224776.59329482037,-9120906.178470392,-8377741.15285977,-0.1752816491010522,-0.8062474039184799,0.12890164162571263,0.5501143826054027,35.26192132100532,-0.9054938410827421,0.05440137511552318,-0.010077574412924778,0.035788911168932194,0.006272497796175644,-0.9054938410827421,38.17653012003536,-4.397429923680395,0.0325068670101634,-0.01754873880209152,0.06573322962431746,0.05440137511552318,-4.397429923680395,31.3367020461859,-0.017110594335492023,0.006100554484881702,-0.031739872865976584,-0.010077574412924778,0.0325068670101634,-0.017110594335492023,0.002676134658554905,2.57977813927101e-05,-0.0007619876831056424,0.035788911168932194,-0.01754873880209152,0.006100554484881702,2.57977813927101e-05,0.00032144442395681057,-0.00011630882603426565,0.006272497796175644,0.06573322962431746,-0.031739872865976584,-0.0007619876831056424,-0.00011630882603426565,0.0010667040598636196,155135.7864257977,211319.51921739287,-119876.74209737724,0.0,0.0,0.0,1.5996022595148507,-0.09433403989961028,-0.00043182308955183737,0.0,0.0,0.0,-0.09433403989961028,2.0857537645769084,-0.5083399551462854,0.0,0.0,0.0,-0.00043182308955183737,-0.5083399551462854,1.197687466074857,0.0,0.0,0.0,0.0,0.0,0.0,0.0,0.0,0.0,0.0,0.0,0.0,0.0,0.0,0.0,0.0,0.0,0.0,0.0,0.0,0.0
1403638135695097000,5885,1403638135695097000,world,odom,-217019.86484386874,-9110340.105487831,-8383735.031934364,-0.18282789865946475,-0.8035758813373886,0.12774520488592958,0.5518341463096097,35.95471013326651,-0.8990195644497758,0.03978393541578225,-0.010402899278043554,0.03636849246010781,0.007159946969852756,-0.8990195644497758,38.92273559155805,-4.513480934236468,0.03198956887560023,-0.017998912812670763,0.06688396490534647,0.03978393541578225,-4.513480934236468,31.894855846857887,-0.01694996367795524,0.006297098461233481,-0.032288872694934315,-0.010402899278043554,0.03198956887560023,-0.01694996367795524,0.002720030103355868,8.240076876704497e-07,-0.0007626823903688892,0.03636849246010781,-0.017998912812670763,0.006297098461233481,8.240076876704497e-07,0.0003200752913191309,-0.00010309929688027915,0.007159946969852756,0.06688396490534647,-0.032288872694934315,-0.0007626823903688892,-0.00010309929688027915,0.0010600050131592726,155135.81216069584,211319.73253798168,-119876.81072598946,0.0,0.0,0.0,1.6193572497569775,-0.09118989628547094,-0.0028303681852427046,0.0,0.0,0.0,-0.09118989628547094,2.110452633244395,-0.5148817192106929,0.0,0.0,0.0,-0.0028303681852427046,-0.5148817192106929,1.2090500232456323,0.0,0.0,0.0,0.0,0.0,0.0,0.0,0.0,0.0,0.0,0.0,0.0,0.0,0.0,0.0,0.0,0.0,0.0,0.0,0.0,0.0
1403638135745097000,5886,1403638135745097000,world,odom,-209263.08054668785,-9099774.125034582,-8389728.867839321,-0.1905935157941174,-0.8004533991351719,0.1285871538449432,0.55354657565217,36.66837256333355,-0.9274270842633232,0.0406952023005684,-0.01023070890322901,0.037351132281151896,0.007450151698102422,-0.9274270842633232,39.753981455756545,-4.665015140182722,0.03187945067736225,-0.019211072404311923,0.06873606564757208,0.0406952023005684,-4.665015140182722,32.47572060142476,-0.01701839311961796,0.00684279488100492,-0.0331373661532446,-0.01023070890322901,0.03187945067736225,-0.01701839311961796,0.0027646211603332216,-3.24062148336433e-05,-0.0007612501128851543,0.037351132281151896,-0.019211072404311923,0.00684279488100492,-3.24062148336433e-05,0.00032658973762951044,-9.599084730069404e-05,0.007450151698102422,0.06873606564757208,-0.0331373661532446,-0.0007612501128851543,-9.599084730069404e-05,0.0010624654826867624,155135.86118420277,211319.88453106233,-119876.86172607516,0.0,0.0,0.0,1.6409507776479748,-0.0928180607874653,-0.003305972255870147,0.0,0.0,0.0,-0.0928180607874653,2.145617237490925,-0.5251376188083376,0.0,0.0,0.0,-0.003305972255870147,-0.5251376188083376,1.2217327903937376,0.0,0.0,0.0,0.0,0.0,0.0,0.0,0.0,0.0,0.0,0.0,0.0,0.0,0.0,0.0,0.0,0.0,0.0,0.0,0.0,0.0
1403638135795097000,5887,1403638135795097000,world,odom,-201506.25265268053,-9089208.073128184,-8395722.741299797,-0.19501681977476015,-0.800151671886973,0.12959540490581922,0.5522053721295342,37.38759033733309,-0.9593959366120961,0.042183183116334816,-0.009921330323116127,0.03827257522520664,0.007605767289972766,-0.9593959366120961,40.59391579498658,-4.816742773798759,0.032736644520316216,-0.02012390519744408,0.07016710272332008,0.042183183116334816,-4.816742773798759,33.063004332382725,-0.01746916789306123,0.007229075307173483,-0.033788018507753884,-0.009921330323116127,0.032736644520316216,-0.01746916789306123,0.002792570149345752,-5.155474079246348e-05,-0.000768713330948765,0.03827257522520664,-0.02012390519744408,0.007229075307173483,-5.155474079246348e-05,0.0003329507159410632,-9.276251168502061e-05,0.007605767289972766,0.07016710272332008,-0.033788018507753884,-0.000768713330948765,-9.276251168502061e-05,0.0010736652459349314,155135.9071924575,211320.04462707235,-119876.89163813367,0.0,0.0,0.0,1.662869086710257,-0.09468786103424723,-0.00373272967166733,0.0,0.0,0.0,-0.09468786103424723,2.1816176592174235,-0.5354398923891753,0.0,0.0,0.0,-0.00373272967166733,-0.5354398923891753,1.2343633094331707,0.0,0.0,0.0,0.0,0.0,0.0,0.0,0.0,0.0,0.0,0.0,0.0,0.0,0.0,0.0,0.0,0.0,0.0,0.0,0.0,0.0
1403638135845097000,5888,1403638135845097000,world,odom,-193749.65085323423,-9078641.568793368,-8401716.811397815,-0.19595026992022996,-0.8028487080177393,0.1283027061282908,0.5482479907419571,38.08119589952726,-0.8974452818224403,0.00028935142449315534,-0.009822752666905065,0.03832831913999827,0.00894865802376951,-0.8974452818224403,41.16029930043397,-4.8383542249539575,0.032957271323418136,-0.018772944582530218,0.06830649001224745,0.00028935142449315534,-4.8383542249539575,33.59660430006985,-0.017588958010882255,0.0065402768547341466,-0.032911804523560656,-0.009822752666905065,0.032957271323418136,-0.017588958010882255,0.0028100378134066927,-2.583333069894654e-05,-0.0007945465416115828,0.03832831913999827,-0.018772944582530218,0.0065402768547341466,-2.583333069894654e-05,0.00032464113223353594,-8.081378833287213e-05,0.00894865802376951,0.06830649001224745,-0.032911804523560656,-0.0007945465416115828,-8.081378833287213e-05,0.001056161525757945,155135.8743162068,211320.42039842397,-119876.98257124083,0.0,0.0,0.0,1.6804674165619908,-0.08302597224946862,-0.009815998860002848,0.0,0.0,0.0,-0.08302597224946862,2.1778105505992507,-0.52922474002086,0.0,0.0,0.0,-0.009815998860002848,-0.52922474002086,1.240222448196425,0.0,0.0,0.0,0.0,0.0,0.0,0.0,0.0,0.0,0.0,0.0,0.0,0.0,0.0,0.0,0.0,0.0,0.0,0.0,0.0,0.0
1403638135895097000,5889,1403638135895097000,world,odom,-185992.7226757989,-9068075.297897287,-8407710.776155913,-0.1975173241126329,-0.8078618673475524,0.11941693625992186,0.5422966948962575,38.81320896391564,-0.9779062812717085,0.027150682611918976,-0.008605786284285214,0.038802690851351004,0.008077867185821219,-0.9779062812717085,41.914125862054675,-4.942601009047277,0.03824732661268185,-0.0197080963980268,0.06627452987398802,0.027150682611918976,-4.942601009047277,34.174971246069106,-0.020356352383860382,0.006913301896089367,-0.0317946339945672,-0.008605786284285214,0.03824732661268185,-0.020356352383860382,0.0026094965836656854,2.1799817994182534e-05,-0.0006838144308595324,0.038802690851351004,-0.0197080963980268,0.006913301896089367,2.1799817994182534e-05,0.00032883734474870225,-0.00010804811833668791,0.008077867185821219,0.06627452987398802,-0.0317946339945672,-0.0006838144308595324,-0.00010804811833668791,0.00098396158587113,155135.95587283038,211320.69451209673,-119877.02379718646,0.0,0.0,0.0,1.703393621575175,-0.08990969921401462,-0.007804976976514099,0.0,0.0,0.0,-0.08990969921401462,2.1996187056114755,-0.5333917989215721,0.0,0.0,0.0,-0.007804976976514099,-0.5333917989215721,1.2503417954097291,0.0,0.0,0.0,0.0,0.0,0.0,0.0,0.0,0.0,0.0,0.0,0.0,0.0,0.0,0.0,0.0,0.0,0.0,0.0,0.0,0.0
1403638135945097000,5890,1403638135945097000,world,odom,-178235.9274560449,-9057509.268667784,-8413704.620713143,-0.19301647286415372,-0.8129773876124817,0.11404524291883575,0.5374068207619342,39.57524666556793,-1.0209960969146117,0.0315334225099136,-0.00922745298130299,0.03943322262899161,0.00906297026736002,-1.0209960969146117,42.79634886837627,-5.102759140027256,0.040515975420506625,-0.021141224392788715,0.06682291434397208,0.0315334225099136,-5.102759140027256,34.78574332226192,-0.02129198542389939,0.007519518575468611,-0.032091283686211974,-0.00922745298130299,0.040515975420506625,-0.02129198542389939,0.0026220183624558187,4.5922425924818505e-05,-0.0007063665417924293,0.03943322262899161,-0.021141224392788715,0.007519518575468611,4.5922425924818505e-05,0.0003374746405504313,-0.0001259401487585315,0.00906297026736002,0.06682291434397208,-0.032091283686211974,-0.0007063665417924293,-0.0001259401487585315,0.0010062314972193228,155135.98379217036,211320.91542288035,-119877.00243129316,0.0,0.0,0.0,1.7283939413131266,-0.0929499735051359,-0.007531078649921211,0.0,0.0,0.0,-0.0929499735051359,2.239007170323935,-0.5463222058643307,0.0,0.0,0.0,-0.007531078649921211,-0.5463222058643307,1.2647778816885566,0.0,0.0,0.0,0.0,0.0,0.0,0.0,0.0,0.0,0.0,0.0,0.0,0.0,0.0,0.0,0.0,0.0,0.0,0.0,0.0,0.0
1403638135995097000,5891,1403638135995097000,world,odom,-170479.1479121865,-9046943.23870464,-8419698.457810141,-0.1916882962359056,-0.8155201299681888,0.10827860290142458,0.5352179545349351,40.33380577359717,-1.0465000154915858,0.02882351550166149,-0.009433374972318827,0.04003131172301242,0.009557463227032749,-1.0465000154915858,43.68191324234642,-5.262206978966021,0.041738745968106734,-0.0217137673667449,0.06802817105994274,0.02882351550166149,-5.262206978966021,35.403690852841535,-0.0218716263229937,0.007712711350782667,-0.03264238799222584,-0.009433374972318827,0.041738745968106734,-0.0218716263229937,0.0026429542692168032,7.383189239431839e-05,-0.0007191970304734098,0.04003131172301242,-0.0217137673667449,0.007712711350782667,7.383189239431839e-05,0.00034386136229669497,-0.00013925339495132194,0.009557463227032749,0.06802817105994274,-0.03264238799222584,-0.0007191970304734098,-0.00013925339495132194,0.001022118162466923,155135.99494846983,211321.14374975165,-119876.97590985209,0.0,0.0,0.0,1.7522943410957952,-0.09392362875876067,-0.007923242663141447,0.0,0.0,0.0,-0.09392362875876067,2.2775041874127604,-0.5592694206237652,0.0,0.0,0.0,-0.007923242663141447,-0.5592694206237652,1.2794300309455597,0.0,0.0,0.0,0.0,0.0,0.0,0.0,0.0,0.0,0.0,0.0,0.0,0.0,0.0,0.0,0.0,0.0,0.0,0.0,0.0,0.0
1403638136045097000,5892,1403638136045097000,world,odom,-162722.17696391334,-9036377.023976535,-8425692.390387055,-0.19477311980277182,-0.8136683041456907,0.10195723098556235,0.5381561536215373,41.070108726412094,-1.1080516699201555,0.044915423258224924,-0.009048090295778318,0.04034068344667936,0.009148228582218703,-1.1080516699201555,44.5079695931475,-5.387840390309638,0.042561192600368,-0.022938996693386744,0.06849680550874332,0.044915423258224924,-5.387840390309638,36.01135400241788,-0.022193761273749914,0.00825357224478596,-0.032866771415052294,-0.009048090295778318,0.042561192600368,-0.022193761273749914,0.0025362714847568697,8.579722060215599e-05,-0.0006438405695965064,0.04034068344667936,-0.022938996693386744,0.00825357224478596,8.579722060215599e-05,0.0003464174546413244,-0.00015246202627568217,0.009148228582218703,0.06849680550874332,-0.032866771415052294,-0.0006438405695965064,-0.00015246202627568217,0.000973259197460074,155136.05451402024,211321.44112124378,-119877.00832120802,0.0,0.0,0.0,1.771770764058732,-0.09976149544579149,-0.005712893507713677,0.0,0.0,0.0,-0.09976149544579149,2.303771306743591,-0.5674958819993448,0.0,0.0,0.0,-0.005712893507713677,-0.5674958819993448,1.2923224295398437,0.0,0.0,0.0,0.0,0.0,0.0,0.0,0.0,0.0,0.0,0.0,0.0,0.0,0.0,0.0,0.0,0.0,0.0,0.0,0.0,0.0
1403638136095097000,5893,1403638136095097000,world,odom,-154965.38095785535,-9025810.956585309,-8431686.236371316,-0.2004473100201531,-0.8090787237007039,0.0979476604718542,0.5437083322596915,41.868334816699104,-1.147447488261069,0.0458943823158582,-0.009166897872301438,0.0412324840857597,0.009604876207941624,-1.147447488261069,45.44416252343781,-5.563127529970908,0.042421829619800074,-0.024494681501371365,0.07056523056194097,0.0458943823158582,-5.563127529970908,36.650188559844985,-0.02200171066573342,0.00894026910181009,-0.03393472729124049,-0.009166897872301438,0.042421829619800074,-0.02200171066573342,0.0025920397630395235,7.679694971528245e-05,-0.0006214286407850922,0.0412324840857597,-0.024494681501371365,0.00894026910181009,7.679694971528245e-05,0.0003532070323231458,-0.0001532056295451562,0.009604876207941624,0.07056523056194097,-0.03393472729124049,-0.0006214286407850922,-0.0001532056295451562,0.0009590189459687201,155136.0818905598,211321.6495257849,-119877.06534560847,0.0,0.0,0.0,1.795394530084449,-0.10205167300361928,-0.005803482175914174,0.0,0.0,0.0,-0.10205167300361928,2.3408639421252015,-0.5799589609171797,0.0,0.0,0.0,-0.005803482175914174,-0.5799589609171797,1.3069692308506995,0.0,0.0,0.0,0.0,0.0,0.0,0.0,0.0,0.0,0.0,0.0,0.0,0.0,0.0,0.0,0.0,0.0,0.0,0.0,0.0,0.0
1403638136145097000,5894,1403638136145097000,world,odom,-147208.57746441805,-9015244.92046558,-8437680.066166569,-0.20849385653483382,-0.8034621517665909,0.09717957354850196,0.5491220383036571,42.669593693068066,-1.1700044431095447,0.040286449705546186,-0.008671911493658629,0.04213984419629249,0.00990142756236785,-1.1700044431095447,46.32798800775635,-5.711032751442023,0.04130861946571496,-0.025668990858900738,0.07236778291252033,0.040286449705546186,-5.711032751442023,37.283658564449105,-0.02152116883080986,0.009454590329260739,-0.034804147465834295,-0.008671911493658629,0.04130861946571496,-0.02152116883080986,0.002640229954719643,5.494287411438205e-05,-0.0006056769641328858,0.04213984419629249,-0.025668990858900738,0.009454590329260739,5.494287411438205e-05,0.0003562745381279728,-0.000146208574479708,0.00990142756236785,0.07236778291252033,-0.034804147465834295,-0.0006056769641328858,-0.000146208574479708,0.0009460945253965223,155136.12166053636,211321.82102314528,-119877.13680779682,0.0,0.0,0.0,1.8174882320164527,-0.10233432255041024,-0.0068252886417486435,0.0,0.0,0.0,-0.10233432255041024,2.3685220364721054,-0.5879386505837412,0.0,0.0,0.0,-0.0068252886417486435,-0.5879386505837412,1.319602279754303,0.0,0.0,0.0,0.0,0.0,0.0,0.0,0.0,0.0,0.0,0.0,0.0,0.0,0.0,0.0,0.0,0.0,0.0,0.0,0.0,0.0
1403638136195097000,5895,1403638136195097000,world,odom,-139451.73339080412,-9004678.877152244,-8443673.902083226,-0.21570328636804845,-0.7981352365123054,0.09755377542638052,0.5540175966406928,43.47477280662178,-1.1981340247216319,0.03716835261556321,-0.007990579495272383,0.04300927262615339,0.009967754935704934,-1.1981340247216319,47.2696114663316,-5.8826613804260255,0.04060896264843948,-0.026833975441594923,0.07449062213177671,0.03716835261556321,-5.8826613804260255,37.935471724714,-0.021236860772026224,0.009965785354966764,-0.03581305617736192,-0.007990579495272383,0.04060896264843948,-0.021236860772026224,0.002685131837121717,3.1871005420126255e-05,-0.0005890709635718526,0.04300927262615339,-0.026833975441594923,0.009965785354966764,3.1871005420126255e-05,0.0003591492721096876,-0.0001411332488760657,0.009967754935704934,0.07449062213177671,-0.03581305617736192,-0.0005890709635718526,-0.0001411332488760657,0.0009388405769938341,155136.1699543533,211321.96175219025,-119877.23895941986,0.0,0.0,0.0,1.8378066835235656,-0.10301508429651847,-0.007576966457130099,0.0,0.0,0.0,-0.10301508429651847,2.4000738873211693,-0.5970563104016213,0.0,0.0,0.0,-0.007576966457130099,-0.5970563104016213,1.3325490566510452,0.0,0.0,0.0,0.0,0.0,0.0,0.0,0.0,0.0,0.0,0.0,0.0,0.0,0.0,0.0,0.0,0.0,0.0,0.0,0.0,0.0
1403638136245097000,5896,1403638136245097000,world,odom,-131694.93413630474,-8994112.78258695,-8449667.761894427,-0.21925608879063108,-0.7968135412198435,0.09581398189875136,0.5548284680237969,44.3026698545995,-1.233685863067703,0.0361288071532755,-0.007725613159912741,0.04391465283143178,0.010314620060654364,-1.233685863067703,48.251467352705596,-6.069210194166736,0.04119348883109131,-0.028054469613595413,0.07621792210132777,0.0361288071532755,-6.069210194166736,38.601349934131406,-0.021491926074715534,0.010479443943907707,-0.036642063763434096,-0.007725613159912741,0.04119348883109131,-0.021491926074715534,0.0027229300958173832,2.6468718213015053e-05,-0.0005872395510366579,0.04391465283143178,-0.028054469613595413,0.010479443943907707,2.6468718213015053e-05,0.0003658497045843554,-0.0001434660479853172,0.010314620060654364,0.07621792210132777,-0.036642063763434096,-0.0005872395510366579,-0.0001434660479853172,0.0009432779967288667,155136.1944127926,211322.12271933033,-119877.3327984644,0.0,0.0,0.0,1.859867038310486,-0.10428385770531315,-0.008050338489000611,0.0,0.0,0.0,-0.10428385770531315,2.4356258941892714,-0.6078608504392007,0.0,0.0,0.0,-0.008050338489000611,-0.6078608504392007,1.3462665026411438,0.0,0.0,0.0,0.0,0.0,0.0,0.0,0.0,0.0,0.0,0.0,0.0,0.0,0.0,0.0,0.0,0.0,0.0,0.0,0.0,0.0
1403638136295097000,5897,1403638136295097000,world,odom,-123938.09459463065,-8983546.632818574,-8455661.653395714,-0.22017890674871335,-0.79720139123233,0.09025734413754852,0.5548376363130162,45.14659450317748,-1.2699040390853094,0.03557739385818368,-0.007942670145764146,0.044738928883402904,0.010848671054258196,-1.2699040390853094,49.25006652567568,-6.2601130648716445,0.042138470667127476,-0.029145674665217926,0.07781611711866687,0.03557739385818368,-6.2601130648716445,39.2766434802422,-0.021947735416881466,0.010914748893897253,-0.03739338898044498,-0.007942670145764146,0.042138470667127476,-0.021947735416881466,0.0027573483364219113,4.364241172218171e-05,-0.0005886101954389584,0.044738928883402904,-0.029145674665217926,0.010914748893897253,4.364241172218171e-05,0.00037416657742000417,-0.00015286662315595702,0.010848671054258196,0.07781611711866687,-0.03739338898044498,-0.0005886101954389584,-0.00015286662315595702,0.0009500601901202442,155136.20316529914,211322.2504256863,-119877.41226106163,0.0,0.0,0.0,1.8824092066501559,-0.10532506151616391,-0.008410371361743753,0.0,0.0,0.0,-0.10532506151616391,2.472192611187253,-0.6179167071311822,0.0,0.0,0.0,-0.008410371361743753,-0.6179167071311822,1.3591467213632074,0.0,0.0,0.0,0.0,0.0,0.0,0.0,0.0,0.0,0.0,0.0,0.0,0.0,0.0,0.0,0.0,0.0,0.0,0.0,0.0,0.0
1403638136345097000,5898,1403638136345097000,world,odom,-116181.29128099137,-8972980.527404986,-8461655.519479679,-0.22015415955311105,-0.7991309784439867,0.084147631070169,0.5530289336986793,46.003647586221916,-1.3066948521067023,0.03482862208523146,-0.00821066955685042,0.045538039440011134,0.011474400806009227,-1.3066948521067023,50.26702652104689,-6.45560534549672,0.04353464117391876,-0.03022927280356583,0.0792094599962332,0.03482862208523146,-6.45560534549672,39.961268078695056,-0.022607799197378507,0.011339818574563933,-0.038040409515514836,-0.00821066955685042,0.04353464117391876,-0.022607799197378507,0.002786144860344584,6.694456734240347e-05,-0.0005974511623599906,0.045538039440011134,-0.03022927280356583,0.011339818574563933,6.694456734240347e-05,0.00038347191881202183,-0.0001645762064277303,0.011474400806009227,0.0792094599962332,-0.038040409515514836,-0.0005974511623599906,-0.0001645762064277303,0.0009617244459095308,155136.21053488832,211322.37171955584,-119877.46161674299,0.0,0.0,0.0,1.9059823285703699,-0.10631388047710179,-0.008857909246616485,0.0,0.0,0.0,-0.10631388047710179,2.5111730716914327,-0.6283291614451418,0.0,0.0,0.0,-0.008857909246616485,-0.6283291614451418,1.3719297985509304,0.0,0.0,0.0,0.0,0.0,0.0,0.0,0.0,0.0,0.0,0.0,0.0,0.0,0.0,0.0,0.0,0.0,0.0,0.0,0.0,0.0
1403638136395097000,5899,1403638136395097000,world,odom,-108424.46228853746,-8962414.401702432,-8467649.396107426,-0.21983104063831027,-0.8010384741333658,0.08109318748202561,0.5508498629154517,46.86518057171519,-1.3384409194290923,0.031761848293493995,-0.008190783317808054,0.04631137256637603,0.011912886491349783,-1.3384409194290923,51.275297381889644,-6.642617908640502,0.04458698755115818,-0.030949791430658444,0.08052345124491044,0.031761848293493995,-6.642617908640502,40.64896122731316,-0.023112274729777393,0.01159902107194457,-0.03862547958574973,-0.008190783317808054,0.04458698755115818,-0.023112274729777393,0.0028037773043461576,8.28821020654805e-05,-0.0006133058605467033,0.04631137256637603,-0.030949791430658444,0.01159902107194457,8.28821020654805e-05,0.00038971953398725693,-0.00017185979321444336,0.011912886491349783,0.08052345124491044,-0.03862547958574973,-0.0006133058605467033,-0.00017185979321444336,0.0009768535371208263,155136.21401344446,211322.48744501334,-119877.47620819164,0.0,0.0,0.0,1.9298961799306775,-0.10669294679109781,-0.009408661551079021,0.0,0.0,0.0,-0.10669294679109781,2.5495337656515917,-0.6374720881248676,0.0,0.0,0.0,-0.009408661551079021,-0.6374720881248676,1.383750471537959,0.0,0.0,0.0,0.0,0.0,0.0,0.0,0.0,0.0,0.0,0.0,0.0,0.0,0.0,0.0,0.0,0.0,0.0,0.0,0.0,0.0
1403638136445097000,5900,1403638136445097000,world,odom,-100667.65780315835,-8951848.283463087,-8473643.264313117,-0.21902360179055536,-0.8034389152698113,0.07708969017869786,0.5482442438885371,47.75005725260762,-1.3779675100839395,0.03113278081610854,-0.008399396030631084,0.047181312075943796,0.012404994756159825,-1.3779675100839395,52.330990558442465,-6.847525021962703,0.04627455911638732,-0.03180634727556657,0.08192999473154984,0.03113278081610854,-6.847525021962703,41.35225914289487,-0.023877293138383812,0.011912684996964755,-0.03926436802417913,-0.008399396030631084,0.04627455911638732,-0.023877293138383812,0.0028291527473821338,0.00010094209668394074,-0.0006271057122681498,0.047181312075943796,-0.03180634727556657,0.011912684996964755,0.00010094209668394074,0.00039832117424490196,-0.00018127452543968388,0.012404994756159825,0.08192999473154984,-0.03926436802417913,-0.0006271057122681498,-0.00018127452543968388,0.0009930040947306094,155136.20704768557,211322.6166015524,-119877.45645006448,0.0,0.0,0.0,1.956251312116128,-0.10782194142258897,-0.009708403665832286,0.0,0.0,0.0,-0.10782194142258897,2.5941282073383545,-0.6493603371746846,0.0,0.0,0.0,-0.009708403665832286,-0.6493603371746846,1.3968533685125841,0.0,0.0,0.0,0.0,0.0,0.0,0.0,0.0,0.0,0.0,0.0,0.0,0.0,0.0,0.0,0.0,0.0,0.0,0.0,0.0,0.0
1403638136495097000,5901,1403638136495097000,world,odom,-92910.84970848403,-8941282.156081634,-8479637.132624747,-0.22073539686649812,-0.8046998912533534,0.0755988733969611,0.5459109633705308,48.64691335465598,-1.4185513077454057,0.031036726873815784,-0.00824774041969881,0.048123485840243015,0.012807260979074697,-1.4185513077454057,53.40495327259466,-7.056556322397141,0.04763547821013596,-0.03291327242995648,0.08343488271298591,0.031036726873815784,-7.056556322397141,42.06471440052806,-0.024535428272049915,0.012356922008772937,-0.039930114728088315,-0.00824774041969881,0.04763547821013596,-0.024535428272049915,0.00285636759387759,0.00010109996024953921,-0.0006413656889758775,0.048123485840243015,-0.03291327242995648,0.012356922008772937,0.00010109996024953921,0.0004050557796911635,-0.00018574609924010667,0.012807260979074697,0.08343488271298591,-0.039930114728088315,-0.0006413656889758775,-0.00018574609924010667,0.0010088493483367468,155136.18188746617,211322.70888327443,-119877.40619000621,0.0,0.0,0.0,1.983360574447405,-0.1087398521963369,-0.009856467069004612,0.0,0.0,0.0,-0.1087398521963369,2.641046480560513,-0.6603806605786874,0.0,0.0,0.0,-0.009856467069004612,-0.6603806605786874,1.408798395298429,0.0,0.0,0.0,0.0,0.0,0.0,0.0,0.0,0.0,0.0,0.0,0.0,0.0,0.0,0.0,0.0,0.0,0.0,0.0,0.0,0.0
1403638136545097000,5902,1403638136545097000,world,odom,-85153.97974289858,-8930715.93176871,-8485631.046617972,-0.22674682973883298,-0.805107735911755,0.07723407603048645,0.542606953768705,49.554496234247715,-1.4674228628045354,0.034355211073456376,-0.007244905635529406,0.04918531695491136,0.012912773788209181,-1.4674228628045354,54.48791234229899,-7.264943456880497,0.04929974080853043,-0.03437633744679394,0.08460825115254549,0.034355211073456376,-7.264943456880497,42.78399016229748,-0.025369913381923955,0.012984309099425866,-0.04042162096049064,-0.007244905635529406,0.04929974080853043,-0.025369913381923955,0.0028677501026354016,7.723790069852024e-05,-0.0006475169226038235,0.04918531695491136,-0.03437633744679394,0.012984309099425866,7.723790069852024e-05,0.0004097138342753708,-0.0001834672832166708,0.012912773788209181,0.08460825115254549,-0.04042162096049064,-0.0006475169226038235,-0.0001834672832166708,0.0010178241087696186,155136.1676045379,211322.83040468846,-119877.34946220141,0.0,0.0,0.0,2.0114465040888616,-0.1103374963408995,-0.009824279905607854,0.0,0.0,0.0,-0.1103374963408995,2.6881315186582495,-0.6715424555704232,0.0,0.0,0.0,-0.009824279905607854,-0.6715424555704232,1.420956028886198,0.0,0.0,0.0,0.0,0.0,0.0,0.0,0.0,0.0,0.0,0.0,0.0,0.0,0.0,0.0,0.0,0.0,0.0,0.0,0.0,0.0
1403638136595097000,5903,1403638136595097000,world,odom,-77397.18002140216,-8920149.796291318,-8491624.907769896,-0.23090555131661697,-0.8039710523630288,0.08094728644738458,0.5419969650747672,50.48457838693681,-1.5089234309855115,0.03329962626401929,-0.006570126760095092,0.05032061979598618,0.013085264289804095,-1.5089234309855115,55.60349520324355,-7.483957479200399,0.05008575256162738,-0.03563882080279598,0.08647888192034786,0.03329962626401929,-7.483957479200399,43.51553614238466,-0.025752806100708764,0.01351705352750375,-0.04125153173952684,-0.006570126760095092,0.05008575256162738,-0.025752806100708764,0.0029012185006531493,4.60633291693834e-05,-0.0006576077475694876,0.05032061979598618,-0.03563882080279598,0.01351705352750375,4.60633291693834e-05,0.00041335914338842605,-0.0001764325463118442,0.013085264289804095,0.08647888192034786,-0.04125153173952684,-0.0006576077475694876,-0.0001764325463118442,0.001031154852051261,155136.14612840474,211322.93832802965,-119877.303728611,0.0,0.0,0.0,2.039821212135439,-0.11123406323240687,-0.01005055138977684,0.0,0.0,0.0,-0.11123406323240687,2.736289029420481,-0.6833606019296395,0.0,0.0,0.0,-0.01005055138977684,-0.6833606019296395,1.4335892511472876,0.0,0.0,0.0,0.0,0.0,0.0,0.0,0.0,0.0,0.0,0.0,0.0,0.0,0.0,0.0,0.0,0.0,0.0,0.0,0.0,0.0
1403638136645097000,5904,1403638136645097000,world,odom,-69640.38047366084,-8909583.656848442,-8497618.76656323,-0.23257451436788626,-0.8019149885964751,0.08698630529871378,0.5433919662833967,51.4277931370597,-1.5503417979177672,0.03216111530482392,-0.005907913125505246,0.051576677187875224,0.012721592626451644,-1.5503417979177672,56.74162962311143,-7.709004968248937,0.05065775037622129,-0.03600505311709176,0.08889778804923186,0.03216111530482392,-7.709004968248937,44.25738039404964,-0.02606445617825196,0.013615848306485635,-0.04229394623803382,-0.005907913125505246,0.05065775037622129,-0.02606445617825196,0.0029376227055238784,1.5108785737976936e-05,-0.0006625783503025103,0.051576677187875224,-0.03600505311709176,0.013615848306485635,1.5108785737976936e-05,0.000415063824873591,-0.00016527403511533529,0.012721592626451644,0.08889778804923186,-0.04229394623803382,-0.0006625783503025103,-0.00016527403511533529,0.0010444544328637388,155136.13643279098,211323.047053966,-119877.28239671294,0.0,0.0,0.0,2.067808778232667,-0.11214920896245642,-0.010407087398528143,0.0,0.0,0.0,-0.11214920896245642,2.7838200795398786,-0.6951591270711032,0.0,0.0,0.0,-0.010407087398528143,-0.6951591270711032,1.446451495759269,0.0,0.0,0.0,0.0,0.0,0.0,0.0,0.0,0.0,0.0,0.0,0.0,0.0,0.0,0.0,0.0,0.0,0.0,0.0,0.0,0.0
1403638136695097000,5905,1403638136695097000,world,odom,-61883.58064489825,-8899017.511356587,-8503612.62472381,-0.23201111751040196,-0.8003359190963543,0.09347886020231405,0.5448806847843337,52.38594645611447,-1.5926056793268724,0.030933860036520766,-0.005361311455509405,0.05285881447462462,0.012175045833398573,-1.5926056793268724,57.90133792133646,-7.939376295354924,0.051442592316934974,-0.03590616202973988,0.0914250810485036,0.030933860036520766,-7.939376295354924,45.009159944267175,-0.026464382531322286,0.013486774797100424,-0.04336719663948413,-0.005361311455509405,0.051442592316934974,-0.026464382531322286,0.0029723949716960857,-1.0147321176180398e-05,-0.0006684634948239193,0.05285881447462462,-0.03590616202973988,0.013486774797100424,-1.0147321176180398e-05,0.00041661343648424597,-0.00015420021993204996,0.012175045833398573,0.0914250810485036,-0.04336719663948413,-0.0006684634948239193,-0.00015420021993204996,0.001059892612277124,155136.1395822389,211323.16438172705,-119877.26646542877,0.0,0.0,0.0,2.096129910849964,-0.11316230142186223,-0.010920788201811218,0.0,0.0,0.0,-0.11316230142186223,2.831887383767633,-0.7074096519986917,0.0,0.0,0.0,-0.010920788201811218,-0.7074096519986917,1.4597273722884374,0.0,0.0,0.0,0.0,0.0,0.0,0.0,0.0,0.0,0.0,0.0,0.0,0.0,0.0,0.0,0.0,0.0,0.0,0.0,0.0,0.0
1403638136745097000,5906,1403638136745097000,world,odom,-54126.780899531965,-8888451.359843036,-8509606.48246853,-0.2297574844659656,-0.7994544121343599,0.10034415621470888,0.5459076767772503,53.35956747421169,-1.635580757368393,0.02953609305050582,-0.004894676435348978,0.05416080512232378,0.011498738063801358,-1.635580757368393,59.08310389268378,-8.175331488500412,0.05251416663907228,-0.03545073926332318,0.09396858030295335,0.02953609305050582,-8.175331488500412,45.77111108776568,-0.02699006478595683,0.01318406904162551,-0.04442887840511925,-0.004894676435348978,0.05251416663907228,-0.02699006478595683,0.0030045296049259363,-3.106143650147435e-05,-0.0006774306021262813,0.05416080512232378,-0.03545073926332318,0.01318406904162551,-3.106143650147435e-05,0.00041808838372676835,-0.0001431347512338837,0.011498738063801358,0.09396858030295335,-0.04442887840511925,-0.0006774306021262813,-0.0001431347512338837,0.0010784986476211498,155136.1436303678,211323.29594050237,-119877.26982161826,0.0,0.0,0.0,2.1243440450669895,-0.11424347589032026,-0.011356159121925734,0.0,0.0,0.0,-0.11424347589032026,2.8793156105597064,-0.7200928048315722,0.0,0.0,0.0,-0.011356159121925734,-0.7200928048315722,1.4735702625624767,0.0,0.0,0.0,0.0,0.0,0.0,0.0,0.0,0.0,0.0,0.0,0.0,0.0,0.0,0.0,0.0,0.0,0.0,0.0,0.0,0.0
1403638136795097000,5907,1403638136795097000,world,odom,-46369.85605242333,-8877885.142237615,-8515600.37532463,-0.22962636725857857,-0.796652162875707,0.10823875949837311,0.5485448329784356,54.26609465404033,-1.647785915957043,0.01602277983262157,-0.0011305723970851359,0.05458248020816074,0.009503731307239085,-1.647785915957043,60.25009997281941,-8.400729058991868,0.05209297838188025,-0.03419323823290181,0.09697808697795406,0.01602277983262157,-8.400729058991868,46.53618145891019,-0.026914625388869656,0.012544729149376162,-0.045667056951479004,-0.0011305723970851359,0.05209297838188025,-0.026914625388869656,0.002904345629349338,-2.7018500954630627e-05,-0.0006322944609937666,0.05458248020816074,-0.03419323823290181,0.012544729149376162,-2.7018500954630627e-05,0.00040797103979614194,-0.0001370827920995065,0.009503731307239085,0.09697808697795406,-0.045667056951479004,-0.0006322944609937666,-0.0001370827920995065,0.0010739988702102201,155136.15798135725,211323.42474208292,-119877.28661133694,0.0,0.0,0.0,2.1473291381988546,-0.11260355833925811,-0.012543244978840785,0.0,0.0,0.0,-0.11260355833925811,2.922347064981007,-0.7308809130044065,0.0,0.0,0.0,-0.012543244978840785,-0.7308809130044065,1.4866535647595756,0.0,0.0,0.0,0.0,0.0,0.0,0.0,0.0,0.0,0.0,0.0,0.0,0.0,0.0,0.0,0.0,0.0,0.0,0.0,0.0,0.0
1403638136845097000,5908,1403638136845097000,world,odom,-38612.939594356496,-8867318.689443976,-8521594.379857473,-0.2298157879810083,-0.7911494357521891,0.12090797866103209,0.5537585526199702,55.17362432094707,-1.8064765788251986,0.0737456927430996,-0.0011002765560479927,0.05494777436888964,0.007649991502018328,-1.8064765788251986,61.232471503612835,-8.524133604760895,0.049733905644454124,-0.03491696640637697,0.09801061115782281,0.0737456927430996,-8.524133604760895,47.25573607275647,-0.025677940630935557,0.012884570647180758,-0.04598203755720946,-0.0011002765560479927,0.049733905644454124,-0.025677940630935557,0.0029226972565069387,-8.325960748120519e-05,-0.0006427883807176365,0.05494777436888964,-0.03491696640637697,0.012884570647180758,-8.325960748120519e-05,0.00040178388363955146,-0.0001261238720314448,0.007649991502018328,0.09801061115782281,-0.04598203755720946,-0.0006427883807176365,-0.0001261238720314448,0.0010622898059268002,155136.21710205698,211323.65753219576,-119877.39475325923,0.0,0.0,0.0,2.161802673137243,-0.12826473665546878,-0.006321131377277358,0.0,0.0,0.0,-0.12826473665546878,2.936885880571963,-0.7298713814817857,0.0,0.0,0.0,-0.006321131377277358,-0.7298713814817857,1.4949475761001496,0.0,0.0,0.0,0.0,0.0,0.0,0.0,0.0,0.0,0.0,0.0,0.0,0.0,0.0,0.0,0.0,0.0,0.0,0.0,0.0,0.0
1403638136895097000,5909,1403638136895097000,world,odom,-30855.770799840262,-8856752.091865538,-8527588.45231241,-0.24254456347091538,-0.7826057499821119,0.12776075821931054,0.5589074730980668,56.11273558689772,-1.9506416474279424,0.11915303829021728,0.004260458599610283,0.05525770524673313,0.003788784219297009,-1.9506416474279424,62.378498817822056,-8.72637186711409,0.05388506567910975,-0.03527803674805066,0.09864920301461592,0.11915303829021728,-8.72637186711409,48.023751341747314,-0.027643469633047472,0.013021652248175957,-0.04613258058496061,0.004260458599610283,0.05388506567910975,-0.027643469633047472,0.0026943541181372477,-9.603055921135973e-05,-0.0004601596293292684,0.05525770524673313,-0.03527803674805066,0.013021652248175957,-9.603055921135973e-05,0.00039479995365433046,-0.00013238198693464525,0.003788784219297009,0.09864920301461592,-0.04613258058496061,-0.0004601596293292684,-0.00013238198693464525,0.0009667445224121379,155136.30125162358,211323.95473242895,-119877.54315552337,0.0,0.0,0.0,2.1839735366084576,-0.13665066217925115,-0.003514316110976913,0.0,0.0,0.0,-0.13665066217925115,2.96643933883626,-0.7365505092898983,0.0,0.0,0.0,-0.003514316110976913,-0.7365505092898983,1.5071315114985444,0.0,0.0,0.0,0.0,0.0,0.0,0.0,0.0,0.0,0.0,0.0,0.0,0.0,0.0,0.0,0.0,0.0,0.0,0.0,0.0,0.0
1403638136945097000,5910,1403638136945097000,world,odom,-23098.86989140741,-8846185.772732971,-8533582.391547529,-0.24684307203105682,-0.7744245888834816,0.13666840777950792,0.5662656622451473,57.10375670935295,-2.0740831338240158,0.15208558441915282,0.006985221346164374,0.055695202428186305,0.0030398202965295695,-2.0740831338240158,63.60083944978259,-8.955711801494802,0.05476404180127703,-0.03828436976678759,0.10038701312741408,0.15208558441915282,-8.955711801494802,48.81051645080803,-0.027814564002930683,0.014384644391237714,-0.04696470543477428,0.006985221346164374,0.05476404180127703,-0.027814564002930683,0.0026613898014531774,-0.0001390660224223341,-0.00038570751167839323,0.055695202428186305,-0.03828436976678759,0.014384644391237714,-0.0001390660224223341,0.00040099823730049437,-0.0001372939716034705,0.0030398202965295695,0.10038701312741408,-0.04696470543477428,-0.00038570751167839323,-0.0001372939716034705,0.0009303715174000388,155136.35437101385,211324.145719963,-119877.67934953874,0.0,0.0,0.0,2.2055161422656746,-0.14371389347681096,-0.0014683848340951312,0.0,0.0,0.0,-0.14371389347681096,3.001171050076315,-0.7457283453621355,0.0,0.0,0.0,-0.0014683848340951312,-0.7457283453621355,1.5206028830978076,0.0,0.0,0.0,0.0,0.0,0.0,0.0,0.0,0.0,0.0,0.0,0.0,0.0,0.0,0.0,0.0,0.0,0.0,0.0,0.0,0.0
1403638136995097000,5911,1403638136995097000,world,odom,-16117.768297100234,-8836676.078836884,-8538976.936812162,-0.24812177496373844,-0.7694970101897526,0.14302794866508456,0.5708353019904547,58.030006106576884,-2.1042894755999786,0.14492148571592142,0.00794950345584132,0.056400620351198194,0.0028256317988490094,-2.1042894755999786,64.70528059740448,-9.166490383931896,0.05393361411599813,-0.03819113514887007,0.10289156533765041,0.14492148571592142,-9.166490383931896,49.530608760904265,-0.027378858098071127,0.014285452036863672,-0.04807869688937818,0.00794950345584132,0.05393361411599813,-0.027378858098071127,0.0026839416716846597,-0.00016334421779179873,-0.000372416747176341,0.056400620351198194,-0.03819113514887007,0.014285452036863672,-0.00016334421779179873,0.00040267660087314305,-0.00012756164202163192,0.0028256317988490094,0.10289156533765041,-0.04807869688937818,-0.000372416747176341,-0.00012756164202163192,0.0009310751027551742,155136.36477824714,211324.32216853535,-119877.79993422692,0.0,0.0,0.0,2.226203183155664,-0.14292272439133943,-0.0025437877427852353,0.0,0.0,0.0,-0.14292272439133943,3.03184617049898,-0.7546972695978591,0.0,0.0,0.0,-0.0025437877427852353,-0.7546972695978591,1.5334671908463247,0.0,0.0,0.0,0.0,0.0,0.0,0.0,0.0,0.0,0.0,0.0,0.0,0.0,0.0,0.0,0.0,0.0,0.0,0.0,0.0,0.0
1403638137045097000,5912,1403638137045097000,world,odom,-7585.256782920058,-8825053.22238412,-8545570.227779312,-0.24651451664485732,-0.7669465284369974,0.14866898311682877,0.5735164767125689,0.0007564345356957499,5.263069475798461e-10,-4.8072077880410084e-11,1.5569328814781063e-08,1.352545451624557e-07,2.626908691269384e-08,5.263069475798461e-10,0.0007564336114882066,-2.133205171678459e-10,3.207004491463144e-08,-2.8904872868188103e-08,1.1521578163338044e-07,-4.8072077880410084e-11,-2.133205171678459e-10,0.0007564329372119461,-1.823722068974218e-08,1.2222491309104492e-09,-5.107387310096925e-08,1.5569328814781063e-08,3.207004491463144e-08,-1.823722068974218e-08,3.162503914721147e-05,1.2143005051015346e-10,1.5473608077326124e-10,1.352545451624557e-07,-2.8904872868188103e-08,1.2222491309104492e-09,1.2143005051015346e-10,3.162466079138848e-05,4.817100717832619e-11,2.626908691269384e-08,1.1521578163338044e-07,-5.107387310096925e-08,1.5473608077326124e-10,4.817100717832619e-11,3.162468184090831e-05,155136.40627107964,211324.50339609696,-119877.93906282834,0.0,0.0,0.0,0.2501695426015507,-6.736530557812663e-08,-1.491246167223855e-07,0.0,0.0,0.0,-6.736530557812663e-08,0.2501692521145371,-6.705418994838297e-07,0.0,0.0,0.0,-1.491246167223855e-07,-6.705418994838297e-07,0.25016807493298404,0.0,0.0,0.0,0.0,0.0,0.0,0.0,0.0,0.0,0.0,0.0,0.0,0.0,0.0,0.0,0.0,0.0,0.0,0.0,0.0,0.0
1403638137095097000,5913,1403638137095097000,world,odom,171.557342217239,-8814487.002365476,-8551564.121870393,-0.2416313036413616,-0.7689421318986099,0.14928874994182925,0.5727610147632283,0.002757620384035095,-6.281281415843565e-10,-2.6378770391451502e-09,2.55739384642044e-07,1.7589210063724785e-06,3.188249060022477e-07,-6.281281415843565e-10,0.002757614152838934,-1.1268367684621791e-08,5.095287778998617e-07,-4.2237386765413976e-07,1.4991909654404543e-06,-2.6378770391451502e-09,-1.1268367684621791e-08,0.0027575952179636934,-2.7099203674117696e-07,7.252191437886e-09,-7.387974099133334e-07,2.55739384642044e-07,5.095287778998617e-07,-2.7099203674117696e-07,0.00011287478550070736,-1.4571354999628963e-10,-2.3984548229997293e-10,1.7589210063724785e-06,-4.2237386765413976e-07,7.252191437886e-09,-1.4571354999628963e-10,0.00011287162536595836,3.17957851414875e-10,3.188249060022477e-07,1.4991909654404543e-06,-7.387974099133334e-07,-2.3984548229997293e-10,3.17957851414875e-10,0.00011287182167133436,155136.45364915693,211324.69955311704,-119878.04837535913,0.0,0.0,0.0,0.2503973856538373,-1.0762784857457837e-06,-2.257720250148047e-06,0.0,0.0,0.0,-1.0762784857457837e-06,0.2503930713573585,-9.559345885823599e-06,0.0,0.0,0.0,-2.257720250148047e-06,-9.559345885823599e-06,0.2503776079998007,0.0,0.0,0.0,0.0,0.0,0.0,0.0,0.0,0.0,0.0,0.0,0.0,0.0,0.0,0.0,0.0,0.0,0.0,0.0,0.0,0.0
1403638137145097000,5914,1403638137145097000,world,odom,7928.3735990405,-8803920.772876773,-8557558.020954693,-0.23471686024971278,-0.772977607218348,0.1479532275689131,0.5705466297380571,0.0060112595571412955,-1.2028031664255278e-08,-2.734312301676496e-08,1.2217362168229943e-06,8.45161334458305e-06,1.4783593602768526e-06,-1.2028031664255278e-08,0.00601120503515682,-1.1917988602342551e-07,2.5229416628694553e-06,-1.987475530499591e-06,7.211443833104559e-06,-2.734312301676496e-08,-1.1917988602342551e-07,0.00601100471988145,-1.310408749464177e-06,2.5056535114191696e-08,-3.5181090087658905e-06,1.2217362168229943e-06,2.5229416628694553e-06,-1.310408749464177e-06,0.00024411239745010817,-4.083656480346641e-09,-6.312243108199437e-09,8.45161334458305e-06,-1.987475530499591e-06,2.5056535114191696e-08,-4.083656480346641e-09,0.00024410750226408427,6.382903156304757e-09,1.4783593602768526e-06,7.211443833104559e-06,-3.5181090087658905e-06,-6.312243108199437e-09,6.382903156304757e-09,0.00024411274344655255,155136.49165772923,211324.88402178758,-119878.1391747243,0.0,0.0,0.0,0.25074826925451665,-4.558255789852423e-06,-9.996747731465995e-06,0.0,0.0,0.0,-4.558255789852423e-06,0.25072850852822487,-4.547130972986404e-05,0.0,0.0,0.0,-9.996747731465995e-06,-4.547130972986404e-05,0.2506496272479263,0.0,0.0,0.0,0.0,0.0,0.0,0.0,0.0,0.0,0.0,0.0,0.0,0.0,0.0,0.0,0.0,0.0,0.0,0.0,0.0,0.0
1403638137195097000,5915,1403638137195097000,world,odom,15685.1920254951,-8793354.533816526,-8563551.924202837,-0.22644927041526802,-0.7782622060213303,0.14722571051853128,0.5668802843365776,0.010519822765782727,-6.804747015690634e-08,-1.4943209206515055e-07,3.683919035893617e-06,2.627854587551249e-05,4.401564400079262e-06,-6.804747015690634e-08,0.010519534559256298,-6.528441001617869e-07,8.129221881294685e-06,-5.989028384834647e-06,2.2383538750596306e-05,-1.4943209206515055e-07,-6.528441001617869e-07,0.010518420066024011,-4.143510298961069e-06,-1.1158225120842553e-08,-1.0783391565158114e-05,3.683919035893617e-06,8.129221881294685e-06,-4.143510298961069e-06,0.00042529458124662857,-1.9757889100849005e-08,-2.708525691047446e-08,2.627854587551249e-05,-5.989028384834647e-06,-1.1158225120842553e-08,-1.9757889100849005e-08,0.00042530390906449336,3.979538536064499e-08,4.401564400079262e-06,2.2383538750596306e-05,-1.0783391565158114e-05,-2.708525691047446e-08,3.979538536064499e-08,0.0004253268329463325,155136.5421095268,211325.08815046627,-119878.21951418683,0.0,0.0,0.0,0.2513169660228534,-1.585882810394596e-05,-3.41415940228731e-05,0.0,0.0,0.0,-1.585882810394596e-05,0.2512522805610045,-0.00014687718383132105,0.0,0.0,0.0,-3.41415940228731e-05,-0.00014687718383132105,0.251005041637099,0.0,0.0,0.0,0.0,0.0,0.0,0.0,0.0,0.0,0.0,0.0,0.0,0.0,0.0,0.0,0.0,0.0,0.0,0.0,0.0,0.0
1403638137245097000,5916,1403638137245097000,world,odom,23442.012829529613,-8782788.284093753,-8569545.830970611,-0.21765510797864054,-0.7841907602028343,0.14567196730739596,0.5625395839619647,0.016287629981842456,-2.6505216314819764e-07,-5.727534279291435e-07,8.135015985530022e-06,6.417281798865523e-05,1.048430121799243e-05,-2.6505216314819764e-07,0.0162865156623975,-2.5189340356719195e-06,2.0574623188572256e-05,-1.4162021346838465e-05,5.427692697809771e-05,-5.727534279291435e-07,-2.5189340356719195e-06,0.016282267322357748,-1.0435598031242e-05,-2.0406535366372467e-07,-2.6323611954237442e-05,8.135015985530022e-06,2.0574623188572256e-05,-1.0435598031242e-05,0.0006563289981305579,-5.9645638780924e-08,-7.570503890087542e-08,6.417281798865523e-05,-1.4162021346838465e-05,-2.0406535366372467e-07,-5.9645638780924e-08,0.0006564075307594748,1.468200917320628e-07,1.048430121799243e-05,5.427692697809771e-05,-2.6323611954237442e-05,-7.570503890087542e-08,1.468200917320628e-07,0.0006564696289261282,155136.58524144013,211325.30532956793,-119878.27535442759,0.0,0.0,0.0,0.2522643632547514,-3.878756750625699e-05,-8.266937358285782e-05,0.0,0.0,0.0,-3.878756750625699e-05,0.25209620858325754,-0.0003758996922233799,0.0,0.0,0.0,-8.266937358285782e-05,-0.0003758996922233799,0.2514733736212977,0.0,0.0,0.0,0.0,0.0,0.0,0.0,0.0,0.0,0.0,0.0,0.0,0.0,0.0,0.0,0.0,0.0,0.0,0.0,0.0,0.0
1403638137295097000,5917,1403638137295097000,world,odom,31198.872773685416,-8772221.973168882,-8575539.768832348,-0.2106076783341833,-0.7882153617738189,0.1447539041618331,0.5598278811566639,0.023322159500550162,-7.967494616496269e-07,-1.710730432420415e-06,1.5760579972281726e-05,0.00013398216635309037,2.1363675638301493e-05,-7.967494616496269e-07,0.023318751713228374,-7.673599129125739e-06,4.366296147075791e-05,-2.864383713830907e-05,0.00011293857512044918,-1.710730432420415e-06,-7.673599129125739e-06,0.023305889763656912,-2.2042027439653404e-05,-5.885902622019836e-07,-5.4894764824423866e-05,1.5760579972281726e-05,4.366296147075791e-05,-2.2042027439653404e-05,0.0009371335860471376,-1.3401465189417928e-07,-1.6520268446444756e-07,0.00013398216635309037,-2.864383713830907e-05,-5.885902622019836e-07,-1.3401465189417928e-07,0.0009373657450521476,3.6841934741324935e-07,2.1363675638301493e-05,0.00011293857512044918,-5.4894764824423866e-05,-1.6520268446444756e-07,3.6841934741324935e-07,0.0009375064889825909,155136.6298948102,211325.51662636007,-119878.32743564081,0.0,0.0,0.0,0.2537561765278326,-8.028632821937675e-05,-0.00017220598513973258,0.0,0.0,0.0,-8.028632821937675e-05,0.2534038742712247,-0.0007912150873448749,0.0,0.0,0.0,-0.00017220598513973258,-0.0007912150873448749,0.2520803983528043,0.0,0.0,0.0,0.0,0.0,0.0,0.0,0.0,0.0,0.0,0.0,0.0,0.0,0.0,0.0,0.0,0.0,0.0,0.0,0.0,0.0
