%time,field.header.seq,field.header.stamp,field.header.frame_id,field.child_frame_id,field.pose.pose.position.x,field.pose.pose.position.y,field.pose.pose.position.z,field.pose.pose.orientation.x,field.pose.pose.orientation.y,field.pose.pose.orientation.z,field.pose.pose.orientation.w,field.pose.covariance0,field.pose.covariance1,field.pose.covariance2,field.pose.covariance3,field.pose.covariance4,field.pose.covariance5,field.pose.covariance6,field.pose.covariance7,field.pose.covariance8,field.pose.covariance9,field.pose.covariance10,field.pose.covariance11,field.pose.covariance12,field.pose.covariance13,field.pose.covariance14,field.pose.covariance15,field.pose.covariance16,field.pose.covariance17,field.pose.covariance18,field.pose.covariance19,field.pose.covariance20,field.pose.covariance21,field.pose.covariance22,field.pose.covariance23,field.pose.covariance24,field.pose.covariance25,field.pose.covariance26,field.pose.covariance27,field.pose.covariance28,field.pose.covariance29,field.pose.covariance30,field.pose.covariance31,field.pose.covariance32,field.pose.covariance33,field.pose.covariance34,field.pose.covariance35,field.twist.twist.linear.x,field.twist.twist.linear.y,field.twist.twist.linear.z,field.twist.twist.angular.x,field.twist.twist.angular.y,field.twist.twist.angular.z,field.twist.covariance0,field.twist.covariance1,field.twist.covariance2,field.twist.covariance3,field.twist.covariance4,field.twist.covariance5,field.twist.covariance6,field.twist.covariance7,field.twist.covariance8,field.twist.covariance9,field.twist.covariance10,field.twist.covariance11,field.twist.covariance12,field.twist.covariance13,field.twist.covariance14,field.twist.covariance15,field.twist.covariance16,field.twist.covariance17,field.twist.covariance18,field.twist.covariance19,field.twist.covariance20,field.twist.covariance21,field.twist.covariance22,field.twist.covariance23,field.twist.covariance24,field.twist.covariance25,field.twist.covariance26,field.twist.covariance27,field.twist.covariance28,field.twist.covariance29,field.twist.covariance30,field.twist.covariance31,field.twist.covariance32,field.twist.covariance33,field.twist.covariance34,field.twist.covariance35
1403637131988319000,3048,1403637131988319000,world,odom,5246.421242098427,-27076.958008130372,-7294.093385776195,0.18413650722082564,-0.6269578797030017,-0.4011912128120944,0.6419214707027584,0.6171368232893182,0.024398309601030628,0.0031947148651472607,0.023407336188011184,0.04380609465095696,0.013686629065903105,0.024398309601030628,0.5170748958379855,0.07391642906324335,0.002479855374543791,-0.0005635827109627533,0.030227509778147508,0.0031947148651472607,0.07391642906324335,0.5812152767116736,-0.0015406253575812046,-0.011045305964340002,0.044239413615840315,0.023407336188011184,0.002479855374543791,-0.0015406253575812046,0.004598184143212177,0.006921199390467643,0.0010935209716725612,0.04380609465095696,-0.0005635827109627533,-0.011045305964340002,0.006921199390467643,0.013976046846689957,-0.0005818374652535501,0.013686629065903105,0.030227509778147508,0.044239413615840315,0.0010935209716725612,-0.0005818374652535501,0.01811216967474947,109.01282570375636,-616.9862352486722,-226.36325883123735,0.0,0.0,0.0,1.0173968813498575,0.11999835609002331,0.015889466864369536,0.0,0.0,0.0,0.11999835609002331,0.5226106467642683,0.3651692833634901,0.0,0.0,0.0,0.015889466864369536,0.3651692833634901,0.8397132085236289,0.0,0.0,0.0,0.0,0.0,0.0,0.0,0.0,0.0,0.0,0.0,0.0,0.0,0.0,0.0,0.0,0.0,0.0,0.0,0.0,0.0
1403637132038319000,3049,1403637132038319000,world,odom,5251.873866127227,-27107.81803234625,-7305.41743575376,0.1842242397563211,-0.6267420702895523,-0.4016028527505676,0.6418496361905781,0.6882605755153962,0.030340363634410686,0.004349555592840225,0.02689727652355693,0.05018986870336123,0.015836535893636792,0.030340363634410686,0.5653227812104856,0.09185913130490286,0.0028627690296986726,-0.0006623757866395259,0.034935463080315095,0.004349555592840225,0.09185913130490286,0.64497889675524,-0.0017481766092458549,-0.01267685946208513,0.05111513552837004,0.02689727652355693,0.0028627690296986726,-0.0017481766092458549,0.004920599098608802,0.007395303891841299,0.001176847116481854,0.05018986870336123,-0.0006623757866395259,-0.01267685946208513,0.007395303891841299,0.014895351147265836,-0.0006285865642601523,0.015836535893636792,0.034935463080315095,0.05111513552837004,0.001176847116481854,-0.0006285865642601523,0.019461411899028645,109.08101651347683,-617.4124532335414,-226.6038684912754,0.0,0.0,0.0,1.1275348920366612,0.13922439408011555,0.019895715464455503,0.0,0.0,0.0,0.13922439408011555,0.5627844730718353,0.4213382887731146,0.0,0.0,0.0,0.019895715464455503,0.4213382887731146,0.928588426616511,0.0,0.0,0.0,0.0,0.0,0.0,0.0,0.0,0.0,0.0,0.0,0.0,0.0,0.0,0.0,0.0,0.0,0.0,0.0,0.0,0.0
1403637132088319000,3050,1403637132088319000,world,odom,5257.330709144835,-27138.69883175099,-7316.75280035251,0.18413305002189023,-0.6266698219387622,-0.40142819763063026,0.642055571043426,0.7057024123698865,0.03486601605662318,0.016030324637573867,0.025941447114277365,0.04027308322661932,0.016223125819272304,0.03486601605662318,0.6165552116123809,0.11258828401773358,0.002748439257958011,-0.0013356435973681195,0.03980666742782256,0.016030324637573867,0.11258828401773358,0.7120881966928844,-0.0017084923128336425,-0.01143743207864157,0.0586553584341777,0.025941447114277365,0.002748439257958011,-0.0017084923128336425,0.004313607912964414,0.0066633023572936585,0.0010806529045862337,0.04027308322661932,-0.0013356435973681195,-0.01143743207864157,0.0066633023572936585,0.011140186099327366,-0.0011817792497888502,0.016223125819272304,0.03980666742782256,0.0586553584341777,0.0010806529045862337,-0.0011817792497888502,0.020655709246689802,109.14258672002286,-617.8410197878758,-226.8364500201338,0.0,0.0,0.0,0.9854404616215631,0.1489497164310966,0.0691777222783137,0.0,0.0,0.0,0.1489497164310966,0.6046023696806202,0.48199452506055696,0.0,0.0,0.0,0.0691777222783137,0.48199452506055696,1.0133305062126226,0.0,0.0,0.0,0.0,0.0,0.0,0.0,0.0,0.0,0.0,0.0,0.0,0.0,0.0,0.0,0.0,0.0,0.0,0.0,0.0,0.0
1403637132138319000,3051,1403637132138319000,world,odom,5262.789378566948,-27169.601426443263,-7328.100297985663,0.18412708135748124,-0.626506650371774,-0.4018867829330111,0.6419296290517131,0.7813076041973166,0.04278714279789273,0.01976875905087315,0.029595736099988952,0.04597273030699842,0.018597939618783414,0.04278714279789273,0.67264286668048,0.13787097740129925,0.0031481461501221726,-0.0015228191514788942,0.0455609671094248,0.01976875905087315,0.13787097740129925,0.7895763624050817,-0.0019477595771703457,-0.013079717224944533,0.06710456700651951,0.029595736099988952,0.0031481461501221726,-0.0019477595771703457,0.004598635310111643,0.00710643164042807,0.0011559929769041737,0.04597273030699842,-0.0015228191514788942,-0.013079717224944533,0.00710643164042807,0.011892867436781338,-0.0012624110196511385,0.018597939618783414,0.0455609671094248,0.06710456700651951,0.0011559929769041737,-0.0012624110196511385,0.022085357722370857,109.20747207459448,-618.2679081802107,-227.0684290181226,0.0,0.0,0.0,1.0875804116820216,0.17117519505875728,0.07973803852738184,0.0,0.0,0.0,0.17117519505875728,0.6548271745003836,0.552026102191767,0.0,0.0,0.0,0.07973803852738184,0.552026102191767,1.1209018896492857,0.0,0.0,0.0,0.0,0.0,0.0,0.0,0.0,0.0,0.0,0.0,0.0,0.0,0.0,0.0,0.0,0.0,0.0,0.0,0.0,0.0
1403637132188319000,3052,1403637132188319000,world,odom,5268.251322262485,-27200.525617699754,-7339.460029523611,0.1839096564580852,-0.6267222805030391,-0.4014398789792892,0.6420610912893201,0.865637221515051,0.052076921128508785,0.02408294263467661,0.03379930057911469,0.05238247404962061,0.021176661992604803,0.052076921128508785,0.7333359289690926,0.16783531175458216,0.0035917995038514086,-0.0017195214828785727,0.05194545268201359,0.02408294263467661,0.16783531175458216,0.8757344803073038,-0.0022269062776608716,-0.014873798783645302,0.07651141154546082,0.03379930057911469,0.0035917995038514086,-0.0022269062776608716,0.004927581344468383,0.0075959526796289464,0.0012317337919232692,0.05238247404962061,-0.0017195214828785727,-0.014873798783645302,0.0075959526796289464,0.012681503911859208,-0.0013452653779845586,0.021176661992604803,0.05194545268201359,0.07651141154546082,0.0012317337919232692,-0.0013452653779845586,0.023581937652234618,109.26920061050424,-618.6996860163798,-227.31542587607828,0.0,0.0,0.0,1.203214018497597,0.19464356013389705,0.09079839004484724,0.0,0.0,0.0,0.19464356013389705,0.7075387926185688,0.628276970661871,0.0,0.0,0.0,0.09079839004484724,0.628276970661871,1.2419740509564656,0.0,0.0,0.0,0.0,0.0,0.0,0.0,0.0,0.0,0.0,0.0,0.0,0.0,0.0,0.0,0.0,0.0,0.0,0.0,0.0,0.0
1403637132238319000,3053,1403637132238319000,world,odom,5273.716442878415,-27231.47110059013,-7350.831326560482,0.18404024353278833,-0.6266127851354804,-0.4015385502418671,0.6420688428313649,0.958341948555947,0.06296732723535858,0.02929285725278385,0.03824631834188655,0.05930913525517148,0.02404737394993193,0.06296732723535858,0.7989789110673409,0.20289010025026405,0.0040611507452054385,-0.0019486215877033827,0.05893749227935318,0.02929285725278385,0.20289010025026405,0.9710794529402867,-0.0025224012362012552,-0.016837490292823915,0.08679314815406751,0.03824631834188655,0.0040611507452054385,-0.0025224012362012552,0.005232243692480423,0.008068362362223972,0.001308213195527604,0.05930913525517148,-0.0019486215877033827,-0.016837490292823915,0.008068362362223972,0.01347933124250649,-0.0014273404638893326,0.02404737394993193,0.05893749227935318,0.08679314815406751,0.001308213195527604,-0.0014273404638893326,0.025107309570012875,109.33650238738132,-619.1222422384365,-227.54364859427417,0.0,0.0,0.0,1.3262568634948406,0.22169005107347323,0.10365984342764228,0.0,0.0,0.0,0.22169005107347323,0.7690803616292752,0.7134983097982048,0.0,0.0,0.0,0.10365984342764228,0.7134983097982048,1.371034100415771,0.0,0.0,0.0,0.0,0.0,0.0,0.0,0.0,0.0,0.0,0.0,0.0,0.0,0.0,0.0,0.0,0.0,0.0,0.0,0.0,0.0
1403637132288319000,3054,1403637132288319000,world,odom,5279.184826188064,-27262.438115317807,-7362.214660031552,0.18405772520669159,-0.626785200273198,-0.40154151168068253,0.6418936679134772,1.0606698800069578,0.0756190541059748,0.0353693433422423,0.04305801448273275,0.06684251904276714,0.027143654363754356,0.0756190541059748,0.8702289324882874,0.24403072857569053,0.004601901291501013,-0.002210816209601816,0.06665566304593942,0.0353693433422423,0.24403072857569053,1.0772251963620738,-0.002790720097598287,-0.018994191992921575,0.09816192077232856,0.04305801448273275,0.004601901291501013,-0.002790720097598287,0.0055319248475364565,0.008539603278426676,0.0013948859049949087,0.06684251904276714,-0.002210816209601816,-0.018994191992921575,0.008539603278426676,0.01428942427761528,-0.0015221861376928762,0.027143654363754356,0.06665566304593942,0.09816192077232856,0.0013948859049949087,-0.0015221861376928762,0.026699024904793776,109.39192985889693,-619.5551029094406,-227.78469942783636,0.0,0.0,0.0,1.462159227849028,0.24908694266683018,0.11786266445848803,0.0,0.0,0.0,0.24908694266683018,0.8336196535388652,0.8070134897546923,0.0,0.0,0.0,0.11786266445848803,0.8070134897546923,1.5178335426809193,0.0,0.0,0.0,0.0,0.0,0.0,0.0,0.0,0.0,0.0,0.0,0.0,0.0,0.0,0.0,0.0,0.0,0.0,0.0,0.0,0.0
1403637132338319000,3055,1403637132338319000,world,odom,5284.656186897712,-27293.42633762985,-7373.609620706985,0.18388513361467268,-0.6267661145116326,-0.4014713269419356,0.6420056611736276,1.174245507950531,0.09040868823705325,0.04251424328883656,0.04841960004516328,0.07508125582169077,0.030592521791677124,0.09040868823705325,0.9474192629918119,0.29165667076664836,0.005173455372458562,-0.002496292965155557,0.07505390548263291,0.04251424328883656,0.29165667076664836,1.1947419100365844,-0.0031397467396261664,-0.021352567578969712,0.11050995866965327,0.04841960004516328,0.005173455372458562,-0.0031397467396261664,0.005865880968718567,0.009043982180827234,0.0014787060967719704,0.07508125582169077,-0.002496292965155557,-0.021352567578969712,0.009043982180827234,0.015120116529701546,-0.0016126854476453795,0.030592521791677124,0.07505390548263291,0.11050995866965327,0.0014787060967719704,-0.0016126854476453795,0.028317733962601184,109.4583672340752,-619.9821544911912,-228.02451564810156,0.0,0.0,0.0,1.6097219461205086,0.28096212280328214,0.1331915568527754,0.0,0.0,0.0,0.28096212280328214,0.9043630213542041,0.9077847266510389,0.0,0.0,0.0,0.1331915568527754,0.9077847266510389,1.6744260306516197,0.0,0.0,0.0,0.0,0.0,0.0,0.0,0.0,0.0,0.0,0.0,0.0,0.0,0.0,0.0,0.0,0.0,0.0,0.0,0.0,0.0
1403637132388319000,3056,1403637132388319000,world,odom,5290.130596162543,-27324.436166228137,-7385.016650383377,0.18357744258201936,-0.6269559216776771,-0.40064408942785384,0.642425021660011,1.301277723507124,0.10755831945978467,0.05062210368022625,0.05451246882000035,0.08422605407881736,0.03431818292131178,0.10755831945978467,1.0314018596048178,0.34705885998505903,0.005770448843719701,-0.002763221972269231,0.08428596403132527,0.05062210368022625,0.34705885998505903,1.3257222623415423,-0.003614136172582636,-0.023885697373562522,0.12410638668242155,0.05451246882000035,0.005770448843719701,-0.003614136172582636,0.00625110760616069,0.009602703573271868,0.0015488066546454548,0.08422605407881736,-0.002763221972269231,-0.023885697373562522,0.009602703573271868,0.015984888229463215,-0.0016989785602875879,0.03431818292131178,0.08428596403132527,0.12410638668242155,0.0015488066546454548,-0.0016989785602875879,0.03001016891766813,109.52307676488167,-620.4083324889338,-228.25690823291714,0.0,0.0,0.0,1.774097807993239,0.3159950814880391,0.14969084195115703,0.0,0.0,0.0,0.3159950814880391,0.984012838849571,1.02004555516795,0.0,0.0,0.0,0.14969084195115703,1.02004555516795,1.8461898679036783,0.0,0.0,0.0,0.0,0.0,0.0,0.0,0.0,0.0,0.0,0.0,0.0,0.0,0.0,0.0,0.0,0.0,0.0,0.0,0.0,0.0
1403637132438319000,3057,1403637132438319000,world,odom,5295.608128048868,-27355.466951660284,-7396.434938774804,0.18366881901273982,-0.6268773837043254,-0.40119812586092657,0.6421297178360194,1.4407121028965248,0.12730383000499798,0.06022852008760704,0.06075874584665657,0.09405832695364615,0.03842841182774278,0.12730383000499798,1.1225354182456775,0.41063541676197685,0.0064888250085134245,-0.0031241562951231185,0.09427000000907329,0.06022852008760704,0.41063541676197685,1.4705609817792173,-0.003936678784974548,-0.026726769771030022,0.13876785029818836,0.06075874584665657,0.0064888250085134245,-0.003936678784974548,0.0065756744086327675,0.010118376406729086,0.001653830075073379,0.09405832695364615,-0.0031241562951231185,-0.026726769771030022,0.010118376406729086,0.016890933144123696,-0.0018007740277779269,0.03842841182774278,0.09427000000907329,0.13876785029818836,0.001653830075073379,-0.0018007740277779269,0.03172006020189183,109.58400829147423,-620.8347360391106,-228.4876300170057,0.0,0.0,0.0,1.949283464579688,0.3534368747434131,0.1685525931877345,0.0,0.0,0.0,0.3534368747434131,1.0702991522059793,1.1419217310498617,0.0,0.0,0.0,0.1685525931877345,1.1419217310498617,2.0320523833290136,0.0,0.0,0.0,0.0,0.0,0.0,0.0,0.0,0.0,0.0,0.0,0.0,0.0,0.0,0.0,0.0,0.0,0.0,0.0,0.0,0.0
1403637132488319000,3058,1403637132488319000,world,odom,5301.0888904493695,-27386.519356125227,-7407.865416386874,0.18366526838592545,-0.626877076378247,-0.40132870720410846,0.6420494288402308,1.5967451466745022,0.1500001416038577,0.0710293568656834,0.06777696943593892,0.10494679449225433,0.042882844286960875,0.1500001416038577,1.2218764300520446,0.4840129351782881,0.00725326175668241,-0.003509156886051538,0.10519414620461592,0.0710293568656834,0.4840129351782881,1.631984229643883,-0.004359174912715983,-0.029839665673976827,0.15482582870330708,0.06777696943593892,0.00725326175668241,-0.004359174912715983,0.006943337005554752,0.010684852729441766,0.0017533431423933513,0.10494679449225433,-0.003509156886051538,-0.029839665673976827,0.010684852729441766,0.017846969918258238,-0.0019057195200478099,0.042882844286960875,0.10519414620461592,0.15482582870330708,0.0017533431423933513,-0.0019057195200478099,0.033504458616670243,109.64650762396441,-621.2637936270913,-228.73047843748395,0.0,0.0,0.0,2.1435091536625395,0.39381110407811915,0.18791601916257095,0.0,0.0,0.0,0.39381110407811915,1.160933638471309,1.2728232972316422,0.0,0.0,0.0,0.18791601916257095,1.2728232972316422,2.2365549605347317,0.0,0.0,0.0,0.0,0.0,0.0,0.0,0.0,0.0,0.0,0.0,0.0,0.0,0.0,0.0,0.0,0.0,0.0,0.0,0.0,0.0
1403637132538319000,3059,1403637132538319000,world,odom,5306.572933347362,-27417.593137263004,-7419.307566705643,0.1836189633560287,-0.626969829303339,-0.40127125668295394,0.6420080124106571,1.767633760404239,0.1759066423506896,0.08376895444549776,0.07521858965931386,0.11641346122791338,0.047672317714701776,0.1759066423506896,1.3297171129215182,0.5675453644106301,0.008082210430063227,-0.0038880975660869083,0.11694932065598874,0.08376895444549776,0.5675453644106301,1.8103723516302637,-0.004779234334009413,-0.03307741137124605,0.17210532355950942,0.07521858965931386,0.008082210430063227,-0.004779234334009413,0.007308204845700811,0.011238636809316901,0.0018531039192445278,0.11641346122791338,-0.0038880975660869083,-0.03307741137124605,0.011238636809316901,0.01876825978205857,-0.0020046828824668546,0.047672317714701776,0.11694932065598874,0.17210532355950942,0.0018531039192445278,-0.0020046828824668546,0.03531045581990919,109.70792974049417,-621.688436276825,-228.96073046299827,0.0,0.0,0.0,2.3479092376941924,0.4378292639543245,0.21032906818066557,0.0,0.0,0.0,0.4378292639543245,1.2624917915940819,1.4161586811174454,0.0,0.0,0.0,0.21032906818066557,1.4161586811174454,2.454097307393866,0.0,0.0,0.0,0.0,0.0,0.0,0.0,0.0,0.0,0.0,0.0,0.0,0.0,0.0,0.0,0.0,0.0,0.0,0.0,0.0,0.0
1403637132588319000,3060,1403637132588319000,world,odom,5312.05995730632,-27448.688217576564,-7430.761490762089,0.18389957085915104,-0.6266913592483843,-0.40198615055032383,0.6417523064601834,1.9590032327773568,0.2055867180848866,0.09795026757265617,0.08324585549371519,0.12923898024506014,0.05297886983987686,0.2055867180848866,1.4475192958611907,0.663297383440925,0.008965541119443204,-0.00438374769333591,0.12976905296087343,0.09795026757265617,0.663297383440925,2.0089944705195815,-0.005255949512187313,-0.036819508470589804,0.19091010652867577,0.08324585549371519,0.008965541119443204,-0.005255949512187313,0.00766228985166654,0.011817522619217579,0.0019607299126290405,0.12923898024506014,-0.00438374769333591,-0.036819508470589804,0.011817522619217579,0.019807854922383943,-0.002118536384097176,0.05297886983987686,0.12976905296087343,0.19091010652867577,0.0019607299126290405,-0.002118536384097176,0.03718979303241351,109.77278754861379,-622.1169961165238,-229.20056254891605,0.0,0.0,0.0,2.5749926247468884,0.4860790709606995,0.23317942272747277,0.0,0.0,0.0,0.4860790709606995,1.3698642576532163,1.5702945612396113,0.0,0.0,0.0,0.23317942272747277,1.5702945612396113,2.693015983159424,0.0,0.0,0.0,0.0,0.0,0.0,0.0,0.0,0.0,0.0,0.0,0.0,0.0,0.0,0.0,0.0,0.0,0.0,0.0,0.0,0.0
1403637132638319000,3061,1403637132638319000,world,odom,5317.5498717047185,-27479.80468786089,-7442.227187039221,0.18372254059330284,-0.6267688362333423,-0.40181374604586856,0.6418353118154457,2.168026583478516,0.2391584394940214,0.11459937771431405,0.0919394722429718,0.14253645387634212,0.058601513934181615,0.2391584394940214,1.5753757015652827,0.771493311666964,0.009910652763785258,-0.004838589938403269,0.14349278847025326,0.11459937771431405,0.771493311666964,2.2281418192904336,-0.005782336412653324,-0.04059636251926399,0.21107339292013494,0.0919394722429718,0.009910652763785258,-0.005782336412653324,0.008053322028470398,0.01240185570203509,0.0020609537511097013,0.14253645387634212,-0.004838589938403269,-0.04059636251926399,0.01240185570203509,0.020761457832069636,-0.0022216343899489834,0.058601513934181615,0.14349278847025326,0.21107339292013494,0.0020609537511097013,-0.0022216343899489834,0.03908932741904719,109.83215351872951,-622.5482519572728,-229.4383687323594,0.0,0.0,0.0,2.815115486872251,0.5367660254232915,0.25948121588917916,0.0,0.0,0.0,0.5367660254232915,1.4849789299122376,1.7366309956639578,0.0,0.0,0.0,0.25948121588917916,1.7366309956639578,2.9508121045998603,0.0,0.0,0.0,0.0,0.0,0.0,0.0,0.0,0.0,0.0,0.0,0.0,0.0,0.0,0.0,0.0,0.0,0.0,0.0,0.0,0.0
1403637132688319000,3062,1403637132688319000,world,odom,5323.043028185272,-27510.942779847686,-7453.705088182885,0.1832649100108363,-0.6269888623276962,-0.40112528124558866,0.6421817873635072,2.402191097464428,0.2772508440904774,0.13296125781375268,0.1017647216994565,0.15715808135587067,0.06463747901880972,0.2772508440904774,1.7150439987041175,0.8946974667998951,0.010914545704721477,-0.0053217810134118535,0.15839326629926415,0.13296125781375268,0.8946974667998951,2.4719944608357185,-0.006472352922768393,-0.04471530242852871,0.2329929050155777,0.1017647216994565,0.010914545704721477,-0.006472352922768393,0.00850949131079558,0.01305413137910244,0.002155264075182367,0.15715808135587067,-0.0053217810134118535,-0.04471530242852871,0.01305413137910244,0.021763087080934454,-0.002330884712475984,0.06463747901880972,0.15839326629926415,0.2329929050155777,0.002155264075182367,-0.002330884712475984,0.041068816021590744,109.89567463842013,-622.9758373751733,-229.67450178750676,0.0,0.0,0.0,3.078476752473312,0.5926373548560612,0.2864716360846573,0.0,0.0,0.0,0.5926373548560612,1.6110377524880202,1.9169835749401818,0.0,0.0,0.0,0.2864716360846573,1.9169835749401818,3.228047139580365,0.0,0.0,0.0,0.0,0.0,0.0,0.0,0.0,0.0,0.0,0.0,0.0,0.0,0.0,0.0,0.0,0.0,0.0,0.0,0.0,0.0
1403637132738319000,3063,1403637132738319000,world,odom,5328.539128392358,-27542.102016429857,-7465.194354933303,0.18315980365038945,-0.6271027419632949,-0.40099257013180084,0.6421834598056545,2.6570444641350828,0.32020723571700715,0.15444565994298304,0.11180386082807701,0.17250829538825507,0.0711253627420742,0.32020723571700715,1.8667391291111448,1.0330398854596115,0.012026936427347019,-0.00582094901495479,0.17429009747743995,0.15444565994298304,1.0330398854596115,2.7403234766013482,-0.00704751070520772,-0.04903459088595452,0.2563515236539229,0.11180386082807701,0.012026936427347019,-0.00704751070520772,0.008915126058435613,0.01366199922231841,0.002262632120325312,0.17250829538825507,-0.00582094901495479,-0.04903459088595452,0.01366199922231841,0.02275974717242973,-0.002436694938489638,0.0711253627420742,0.17429009747743995,0.2563515236539229,0.002262632120325312,-0.002436694938489638,0.04306134437735877,109.95727959032833,-623.404173771774,-229.91196066338907,0.0,0.0,0.0,3.3538152214947967,0.6519819283915961,0.3170293211925077,0.0,0.0,0.0,0.6519819283915961,1.7444171404212578,2.108931138337428,0.0,0.0,0.0,0.3170293211925077,2.108931138337428,3.5240457994450027,0.0,0.0,0.0,0.0,0.0,0.0,0.0,0.0,0.0,0.0,0.0,0.0,0.0,0.0,0.0,0.0,0.0,0.0,0.0,0.0,0.0
1403637132788319000,3064,1403637132788319000,world,odom,5334.038526784243,-27573.282972009016,-7476.6956678934375,0.18318973528695986,-0.6270088257692004,-0.4010291984105947,0.6422437507015372,2.9424622398754114,0.36861931682597193,0.17795161680193997,0.12280085335539706,0.1895220789285628,0.07819372913430885,0.36861931682597193,2.032616289579315,1.1897572618225154,0.013165068833295716,-0.0064387423834255325,0.19150687224334595,0.17795161680193997,1.1897572618225154,3.038448770781217,-0.00779008655476191,-0.05390059205691482,0.2816330367450439,0.12280085335539706,0.013165068833295716,-0.00779008655476191,0.009342207272327796,0.014318526906990592,0.00236664289293307,0.1895220789285628,-0.0064387423834255325,-0.05390059205691482,0.014318526906990592,0.023859444372001517,-0.0025534379762833306,0.07819372913430885,0.19150687224334595,0.2816330367450439,0.00236664289293307,-0.0025534379762833306,0.04513548582291469,110.02054442698991,-623.8282352643306,-230.14050199459797,0.0,0.0,0.0,3.655741886709542,0.7169570385488844,0.3487377200240601,0.0,0.0,0.0,0.7169570385488844,1.8935670711829058,2.3192050754455042,0.0,0.0,0.0,0.3487377200240601,2.3192050754455042,3.8411046070456125,0.0,0.0,0.0,0.0,0.0,0.0,0.0,0.0,0.0,0.0,0.0,0.0,0.0,0.0,0.0,0.0,0.0,0.0,0.0,0.0,0.0
1403637132838319000,3065,1403637132838319000,world,odom,5339.540837061634,-27604.484993384132,-7488.208447547713,0.183091418817026,-0.627059251399629,-0.40095067040938553,0.642271583901989,3.2520997185839478,0.42292013617525126,0.20533844673921062,0.13429998143470484,0.20711158113702333,0.08570141572413822,0.42292013617525126,2.2126313230618795,1.3646549180854475,0.014423713677870442,-0.007037306791670745,0.20979974381104044,0.20533844673921062,1.3646549180854475,3.3657186980480023,-0.008469165352736603,-0.058883372115706295,0.30849123634964615,0.13429998143470484,0.014423713677870442,-0.008469165352736603,0.009763716595364343,0.014951356534364768,0.0024776068114239595,0.20711158113702333,-0.007037306791670745,-0.058883372115706295,0.014951356534364768,0.024899225527347375,-0.0026646148553813483,0.08570141572413822,0.20979974381104044,0.30849123634964615,0.0024776068114239595,-0.0026646148553813483,0.04722050959836448,110.08380046517745,-624.2585185523653,-230.38058961876337,0.0,0.0,0.0,3.972154061103826,0.785670058967666,0.3839978555370215,0.0,0.0,0.0,0.785670058967666,2.0456860031588864,2.5394204301068606,0.0,0.0,0.0,0.3839978555370215,2.5394204301068606,4.182437840181895,0.0,0.0,0.0,0.0,0.0,0.0,0.0,0.0,0.0,0.0,0.0,0.0,0.0,0.0,0.0,0.0,0.0,0.0,0.0,0.0,0.0
1403637132888319000,3066,1403637132888319000,world,odom,5345.046573909531,-27635.708539146108,-7499.733275149992,0.18273594721636904,-0.6269073818219563,-0.40071022080081015,0.6426710100493428,3.598589557745506,0.4838412222931494,0.23507570774604103,0.14710523678777315,0.22639005804122997,0.09393367623139967,0.4838412222931494,2.4094755854094307,1.5617263997047477,0.015650589435998022,-0.00783325356606036,0.22955459534780845,0.23507570774604103,1.5617263997047477,3.728664065294304,-0.009490653275883193,-0.06454906172260531,0.33745892762100305,0.14710523678777315,0.015650589435998022,-0.009490653275883193,0.010242178013002387,0.015653947716507827,0.0025764528282280854,0.22639005804122997,-0.00783325356606036,-0.06454906172260531,0.015653947716507827,0.026014959790494452,-0.002791894980782912,0.09393367623139967,0.22955459534780845,0.33745892762100305,0.0025764528282280854,-0.002791894980782912,0.04939027960091823,110.1457136095635,-624.6863217896049,-230.61373243944405,0.0,0.0,0.0,4.319661672254535,0.8594344613321896,0.42050375647264737,0.0,0.0,0.0,0.8594344613321896,2.21379200740638,2.7797870223424876,0.0,0.0,0.0,0.42050375647264737,2.7797870223424876,4.549312572709206,0.0,0.0,0.0,0.0,0.0,0.0,0.0,0.0,0.0,0.0,0.0,0.0,0.0,0.0,0.0,0.0,0.0,0.0,0.0,0.0,0.0
1403637132938319000,3067,1403637132938319000,world,odom,5350.555577516609,-27666.952722862115,-7511.268752644145,0.18285927085296447,-0.6266536332830909,-0.4012362793228156,0.6425551798183616,3.958911900571443,0.5421009026894639,0.25775335444643227,0.1591181065169539,0.24555351313841262,0.10077159322418267,0.5421009026894639,2.6164364096541055,1.772524987965819,0.016539437262151582,-0.009355589244046331,0.24915451333509223,0.25775335444643227,1.772524987965819,4.116213793823275,-0.010863119854574825,-0.07132990560552262,0.36648566127965837,0.1591181065169539,0.016539437262151582,-0.010863119854574825,0.01059653327568531,0.01623565916289798,0.0025969484231262415,0.24555351313841262,-0.009355589244046331,-0.07132990560552262,0.01623565916289798,0.027072772950702036,-0.003056044825520889,0.10077159322418267,0.24915451333509223,0.36648566127965837,0.0025969484231262415,-0.003056044825520889,0.05129870106084805,110.20571215703687,-625.1130556205865,-230.8501726461378,0.0,0.0,0.0,4.653998485250485,0.9201668403367548,0.4413162666177328,0.0,0.0,0.0,0.9201668403367548,2.3775485917870003,3.0185373956664923,0.0,0.0,0.0,0.4413162666177328,3.0185373956664923,4.9204803564611295,0.0,0.0,0.0,0.0,0.0,0.0,0.0,0.0,0.0,0.0,0.0,0.0,0.0,0.0,0.0,0.0,0.0,0.0,0.0,0.0,0.0
1403637132988319000,3068,1403637132988319000,world,odom,5356.097820312834,-27698.196853396512,-7522.789679889083,0.18121341676146904,-0.6272880577980565,-0.39810956912914147,0.644344753293907,2.6831157498045015,-0.5233730457758905,-1.0993017502820852,0.08735467033055086,0.15257976776145532,-0.11053049586813893,-0.5233730457758905,2.080577456039281,1.0783267960456868,-0.04046264599275985,-0.08729390055095707,0.12318072376724928,-1.0993017502820852,1.0783267960456868,3.4085838171763294,-0.08345625568370052,-0.17177057625575726,0.21819491508025643,0.08735467033055086,-0.04046264599275985,-0.08345625568370052,0.006707549120101366,0.011120656571977347,-0.008598361313258213,0.15257976776145532,-0.08729390055095707,-0.17177057625575726,0.011120656571977347,0.020407318037755445,-0.01809280622126301,-0.11053049586813893,0.12318072376724928,0.21819491508025643,-0.008598361313258213,-0.01809280622126301,0.02489786878151592,110.30485305885176,-625.5136834972682,-231.0585259632681,0.0,0.0,0.0,2.283091273705454,-0.8572526162946262,-1.7913774867315815,0.0,0.0,0.0,-0.8572526162946262,1.3106354951449617,1.757955956855615,0.0,0.0,0.0,-1.7913774867315815,1.757955956855615,3.4695234540701065,0.0,0.0,0.0,0.0,0.0,0.0,0.0,0.0,0.0,0.0,0.0,0.0,0.0,0.0,0.0,0.0,0.0,0.0,0.0,0.0,0.0
1403637133038319000,3069,1403637133038319000,world,odom,5361.619760565875,-27729.486709045537,-7534.354962200635,0.1812087321185697,-0.6272200455364751,-0.3981808147514085,0.6443682554604216,2.2403594620153853,-0.13053609640124816,-0.37178770214233303,0.05119446104686353,0.07494213825015458,-0.03024861339293086,-0.13053609640124816,1.9115600696519086,0.6199070935093135,-0.01374363929888377,-0.03222095538523699,0.07198494887319817,-0.37178770214233303,0.6199070935093135,2.5933145322493236,-0.0336641304568987,-0.06820877222455725,0.1198407697075288,0.05119446104686353,-0.01374363929888377,-0.0336641304568987,0.004153718207332957,0.005660956937111276,-0.003095218672742102,0.07494213825015458,-0.03222095538523699,-0.06820877222455725,0.005660956937111276,0.008960694604515268,-0.006672402007876719,-0.03024861339293086,0.07198494887319817,0.1198407697075288,-0.003095218672742102,-0.006672402007876719,0.013888271554033722,110.37901333728907,-625.9402588613509,-231.2947957297807,0.0,0.0,0.0,1.404733959221664,-0.20602181835523709,-0.578588090847787,0.0,0.0,0.0,-0.20602181835523709,0.9022562354097723,0.9667350896586446,0.0,0.0,0.0,-0.578588090847787,0.9667350896586446,1.9594974486909222,0.0,0.0,0.0,0.0,0.0,0.0,0.0,0.0,0.0,0.0,0.0,0.0,0.0,0.0,0.0,0.0,0.0,0.0,0.0,0.0,0.0
1403637133088319000,3070,1403637133088319000,world,odom,5367.140821087585,-27760.794638713014,-7545.925562569338,0.1820053169617416,-0.6266928366602345,-0.3983525934508746,0.6445505134334835,2.401950470975496,-0.14739133056187806,-0.42088869540769724,0.055508729439140744,0.08150192974976166,-0.0328025070011517,-0.14739133056187806,2.029373686108755,0.7011132110854548,-0.014984853870106028,-0.034922372362450806,0.07814039742304052,-0.42088869540769724,0.7011132110854548,2.8008809485080217,-0.036676883219829065,-0.0740567821082806,0.13010148429790827,0.055508729439140744,-0.014984853870106028,-0.036676883219829065,0.004318475372317598,0.005901118804200951,-0.0032363189384883887,0.08150192974976166,-0.034922372362450806,-0.0740567821082806,0.005901118804200951,0.009354719352440252,-0.006943845795793116,-0.0328025070011517,0.07814039742304052,0.13010148429790827,-0.0032363189384883887,-0.006943845795793116,0.014468906012899388,110.4660624726827,-626.3826418976282,-231.5278303063993,0.0,0.0,0.0,1.5046526205518298,-0.22133757918107305,-0.630436555493621,0.0,0.0,0.0,-0.22133757918107305,0.9542863225648734,1.0492996551995013,0.0,0.0,0.0,-0.630436555493621,1.0492996551995013,2.1071311170493887,0.0,0.0,0.0,0.0,0.0,0.0,0.0,0.0,0.0,0.0,0.0,0.0,0.0,0.0,0.0,0.0,0.0,0.0,0.0,0.0,0.0
1403637133138319000,3071,1403637133138319000,world,odom,5372.665592413712,-27792.124173008615,-7557.507550086105,0.18262137675236914,-0.6269340220516904,-0.3959676280210777,0.6456104106243342,2.574286590246743,-0.1662030839486247,-0.4747257733011885,0.0604980671696254,0.0880002630558938,-0.03570543547031379,-0.1662030839486247,2.1541618929711994,0.7908909427659282,-0.0165460192061859,-0.03747505448768555,0.08476911838775897,-0.4747257733011885,0.7908909427659282,3.0244638560630666,-0.04031462471826775,-0.07960610788870762,0.14116420281759717,0.0604980671696254,-0.0165460192061859,-0.04031462471826775,0.004548424584453843,0.006161884760192173,-0.003436366845010996,0.0880002630558938,-0.03747505448768555,-0.07960610788870762,0.006161884760192173,0.009647694831807276,-0.007180802357840436,-0.03570543547031379,0.08476911838775897,0.14116420281759717,-0.003436366845010996,-0.007180802357840436,0.015094557136419107,110.53426845478337,-626.8079924753158,-231.7632988930905,0.0,0.0,0.0,1.6054121072654435,-0.23936409998701824,-0.682483000179589,0.0,0.0,0.0,-0.23936409998701824,1.0099799232098292,1.1362553628314616,0.0,0.0,0.0,-0.682483000179589,1.1362553628314616,2.257760031479052,0.0,0.0,0.0,0.0,0.0,0.0,0.0,0.0,0.0,0.0,0.0,0.0,0.0,0.0,0.0,0.0,0.0,0.0,0.0,0.0,0.0
1403637133188319000,3072,1403637133188319000,world,odom,5378.193709650179,-27823.475168618093,-7569.100977977592,0.18292644850202375,-0.6263147031058097,-0.39711236890492785,0.6454220120003923,2.7592875599629862,-0.18725864009218962,-0.5345183425063114,0.06525671398744565,0.09545075923427271,-0.03848386724016155,-0.18725864009218962,2.2868591796287854,0.8906560718205662,-0.017840088057792095,-0.040755863558062815,0.09170379237148701,-0.5345183425063114,0.8906560718205662,3.266531349452164,-0.04346725999269009,-0.0864997260055699,0.15264510433938605,0.06525671398744565,-0.017840088057792095,-0.04346725999269009,0.0047045965931676184,0.006405190099377527,-0.0035501488592406243,0.09545075923427271,-0.040755863558062815,-0.0864997260055699,0.006405190099377527,0.010091828905803426,-0.007486148944027729,-0.03848386724016155,0.09170379237148701,0.15264510433938605,-0.0035501488592406243,-0.007486148944027729,0.015680168812665436,110.58875537135273,-627.2292822160293,-231.9764417241652,0.0,0.0,0.0,1.7116101805851114,-0.26162604478671037,-0.7371016408716984,0.0,0.0,0.0,-0.26162604478671037,1.075498678970967,1.234438494880964,0.0,0.0,0.0,-0.7371016408716984,1.234438494880964,2.4174630806608244,0.0,0.0,0.0,0.0,0.0,0.0,0.0,0.0,0.0,0.0,0.0,0.0,0.0,0.0,0.0,0.0,0.0,0.0,0.0,0.0,0.0
1403637133238319000,3073,1403637133238319000,world,odom,5383.724294672563,-27854.8468962328,-7580.705269716372,0.1831667957417122,-0.624868396039586,-0.40059220506903176,0.6446047609245218,2.956501823646336,-0.21024345123519217,-0.5997084594556684,0.06978568687022663,0.10366635352953069,-0.04105028336127667,-0.21024345123519217,2.427368952831302,1.0001905169468657,-0.01897354835530664,-0.04462170937823591,0.09887275567982325,-0.5997084594556684,1.0001905169468657,3.5267014226715054,-0.04630669158612047,-0.09447666154312162,0.16442158682642116,0.06978568687022663,-0.01897354835530664,-0.04630669158612047,0.004801663923946494,0.00663154135653673,-0.0036039279728718307,0.10366635352953069,-0.04462170937823591,-0.09447666154312162,0.00663154135653673,0.010639292161020816,-0.007827242862916108,-0.04105028336127667,0.09887275567982325,0.16442158682642116,-0.0036039279728718307,-0.007827242862916108,0.016219766484866793,110.65504242656645,-627.6605556033013,-232.21566513575678,0.0,0.0,0.0,1.8254196846656137,-0.2821866069734735,-0.7963213214356799,0.0,0.0,0.0,-0.2821866069734735,1.1374247628772622,1.3325776780313494,0.0,0.0,0.0,-0.7963213214356799,1.3325776780313494,2.5889599653767736,0.0,0.0,0.0,0.0,0.0,0.0,0.0,0.0,0.0,0.0,0.0,0.0,0.0,0.0,0.0,0.0,0.0,0.0,0.0,0.0,0.0
1403637133288319000,3074,1403637133288319000,world,odom,5389.258971989193,-27886.241257709644,-7592.321675455691,0.1832352863941454,-0.6242793679266933,-0.40315107898318125,0.6435598714306235,3.1691141944630927,-0.23584930124554584,-0.6722589284961025,0.07474285645864512,0.11232527522043484,-0.04406613639953587,-0.23584930124554584,2.57674865428841,1.121416072968798,-0.020106210460542034,-0.04859092139314086,0.1066050590112625,-0.6722589284961025,1.121416072968798,3.8087099639154554,-0.049249285901683496,-0.10272400615407215,0.1771900862563225,0.07474285645864512,-0.020106210460542034,-0.049249285901683496,0.0049176243496325414,0.006860847931497984,-0.003668244313662766,0.11232527522043484,-0.04859092139314086,-0.10272400615407215,0.006860847931497984,0.011164470489471638,-0.00817562351095044,-0.04406613639953587,0.1066050590112625,0.1771900862563225,-0.003668244313662766,-0.00817562351095044,0.01681069583271595,110.7273248031638,-628.1058409305529,-232.4420403594104,0.0,0.0,0.0,1.9510628056637178,-0.30488666691559396,-0.8618990638571155,0.0,0.0,0.0,-0.30488666691559396,1.206315219658439,1.4413159872097858,0.0,0.0,0.0,-0.8618990638571155,1.4413159872097858,2.7775307265885556,0.0,0.0,0.0,0.0,0.0,0.0,0.0,0.0,0.0,0.0,0.0,0.0,0.0,0.0,0.0,0.0,0.0,0.0,0.0,0.0,0.0
1403637133338319000,3075,1403637133338319000,world,odom,5394.799268519286,-27917.65888840248,-7603.951167695455,0.18247361449053737,-0.6241405203360516,-0.40503098147258243,0.6427300327017231,3.3771670222818835,-0.2524346601690872,-0.7292395496041122,0.07913692782892986,0.11925513958421616,-0.04551030689428945,-0.2524346601690872,2.7282608482614132,1.2409483252700935,-0.02070534072500195,-0.051553427586147976,0.11370374613814674,-0.7292395496041122,1.2409483252700935,4.086122871823618,-0.05122695811618833,-0.10898901201840752,0.1885905056699021,0.07913692782892986,-0.02070534072500195,-0.05122695811618833,0.005003752228944047,0.006991637201270258,-0.00364747445323456,0.11925513958421616,-0.051553427586147976,-0.10898901201840752,0.006991637201270258,0.011453076208665541,-0.008339322014186409,-0.04551030689428945,0.11370374613814674,0.1885905056699021,-0.00364747445323456,-0.008339322014186409,0.01724698016659967,110.80329205719391,-628.5606477659359,-232.6524348978116,0.0,0.0,0.0,2.0616332408716054,-0.31570394613975783,-0.9039878275128868,0.0,0.0,0.0,-0.31570394613975783,1.2750692090642337,1.5443333879061227,0.0,0.0,0.0,-0.9039878275128868,1.5443333879061227,2.9472789253291385,0.0,0.0,0.0,0.0,0.0,0.0,0.0,0.0,0.0,0.0,0.0,0.0,0.0,0.0,0.0,0.0,0.0,0.0,0.0,0.0,0.0
1403637133388319000,3076,1403637133388319000,world,odom,5400.341122697375,-27949.097923551166,-7615.589245554592,0.17925297544477659,-0.6237878868410589,-0.4076093478582501,0.6423485522386835,3.620044463572025,-0.2817723819357295,-0.8144202782420049,0.08504060998127441,0.12869097435375418,-0.04835585002895197,-0.2817723819357295,2.8959104235560797,1.3858397748250668,-0.02187517112631814,-0.05634839373011899,0.12207641014648138,-0.8144202782420049,1.3858397748250668,4.41177255056055,-0.054479356532421266,-0.1187452556443348,0.20231655433618856,0.08504060998127441,-0.02187517112631814,-0.054479356532421266,0.005169712864981135,0.007251745551075182,-0.0036910344849052324,0.12869097435375418,-0.05634839373011899,-0.1187452556443348,0.007251745551075182,0.012003716189276639,-0.008716559113291594,-0.04835585002895197,0.12207641014648138,0.20231655433618856,-0.0036910344849052324,-0.008716559113291594,0.017792818885710358,110.87066991719313,-628.9971555644328,-232.87818893773485,0.0,0.0,0.0,2.1981275403812037,-0.34010870493042905,-0.9738780265993459,0.0,0.0,0.0,-0.34010870493042905,1.3518657129439138,1.664273021888611,0.0,0.0,0.0,-0.9738780265993459,1.664273021888611,3.152100354601317,0.0,0.0,0.0,0.0,0.0,0.0,0.0,0.0,0.0,0.0,0.0,0.0,0.0,0.0,0.0,0.0,0.0,0.0,0.0,0.0,0.0
1403637133438319000,3077,1403637133438319000,world,odom,5405.885634407169,-27980.557735521797,-7627.238935093837,0.17592369785238016,-0.6248079221873698,-0.4092377446098641,0.6412412816502676,3.8781020509630113,-0.31378801000661904,-0.9065269340677939,0.09119153750724365,0.13827226055171854,-0.05179250746925799,-0.31378801000661904,3.073411335643657,1.5437607686552646,-0.02282948189723439,-0.061113933524562083,0.13102735133245433,-0.9065269340677939,1.5437607686552646,4.761028764226439,-0.05742928890953078,-0.12845318692026717,0.21707350237858847,0.09119153750724365,-0.02282948189723439,-0.05742928890953078,0.00533139557484605,0.0074844364204359175,-0.003725307067542108,0.13827226055171854,-0.061113933524562083,-0.12845318692026717,0.0074844364204359175,0.012495057840560746,-0.00909444584263705,-0.05179250746925799,0.13102735133245433,0.21707350237858847,-0.003725307067542108,-0.00909444584263705,0.018395926579879426,110.92529388650652,-629.4120614073288,-233.14099702742,0.0,0.0,0.0,2.332783064462897,-0.36433652868345545,-1.0434112274709944,0.0,0.0,0.0,-0.36433652868345545,1.4223255728854822,1.7791101543911427,0.0,0.0,0.0,-1.0434112274709944,1.7791101543911427,3.3566263832159215,0.0,0.0,0.0,0.0,0.0,0.0,0.0,0.0,0.0,0.0,0.0,0.0,0.0,0.0,0.0,0.0,0.0,0.0,0.0,0.0,0.0
1403637133488319000,3078,1403637133488319000,world,odom,5411.433588321935,-28012.038408646284,-7638.902358607257,0.17349571303321143,-0.6280629903963976,-0.4090043831960991,0.6388673823101402,4.155831502926488,-0.3491465364502146,-1.0080779666775666,0.09776168143702979,0.14809057208945345,-0.0566139544225293,-0.3491465364502146,3.2619193564503366,1.7168363755988065,-0.02343220135200049,-0.06540493591161928,0.14093841660767178,-1.0080779666775666,1.7168363755988065,5.138236651554571,-0.05993039515726606,-0.13747983219795779,0.23367663395535782,0.09776168143702979,-0.02343220135200049,-0.05993039515726606,0.005497196608866871,0.007685472773545874,-0.0037713313218110675,0.14809057208945345,-0.06540493591161928,-0.13747983219795779,0.007685472773545874,0.012886695518213852,-0.009474034798169773,-0.0566139544225293,0.14093841660767178,0.23367663395535782,-0.0037713313218110675,-0.009474034798169773,0.01914617934995774,110.98710863406254,-629.8057684892415,-233.3806698357231,0.0,0.0,0.0,2.4689724114330818,-0.38990665042363504,-1.1126987832024047,0.0,0.0,0.0,-0.38990665042363504,1.5038113155505006,1.9030812005238702,0.0,0.0,0.0,-1.1126987832024047,1.9030812005238702,3.5618598264019328,0.0,0.0,0.0,0.0,0.0,0.0,0.0,0.0,0.0,0.0,0.0,0.0,0.0,0.0,0.0,0.0,0.0,0.0,0.0,0.0,0.0
1403637133538319000,3079,1403637133538319000,world,odom,5417.000360247675,-28043.51742330188,-7650.547290083564,0.16835312361086757,-0.6308191342773326,-0.408996025847602,0.6375317219095286,4.119294364120108,-0.5393146362284382,-1.2759871310275814,0.0944911594407547,0.1410930208260101,-0.08048856990471766,-0.5393146362284382,2.936219128760955,1.1202509539451866,-0.02805538775059465,-0.06083399089029941,0.08352738447942668,-1.2759871310275814,1.1202509539451866,4.3541432586658315,-0.06635608659390826,-0.12863629657688885,0.14961281474716456,0.0944911594407547,-0.02805538775059465,-0.06635608659390826,0.005356539944579618,0.007345133710944741,-0.004300184304536507,0.1410930208260101,-0.06083399089029941,-0.12863629657688885,0.007345133710944741,0.011755943081240812,-0.008633890627658729,-0.08048856990471766,0.08352738447942668,0.14961281474716456,-0.004300184304536507,-0.008633890627658729,0.011143530764909568,111.05677179127495,-630.1844310581274,-233.58288160973152,0.0,0.0,0.0,2.2578715704751278,-0.5813503193035274,-1.3542018908714146,0.0,0.0,0.0,-0.5813503193035274,1.0246447384818627,1.1955324394946742,0.0,0.0,0.0,-1.3542018908714146,1.1955324394946742,2.515822582564799,0.0,0.0,0.0,0.0,0.0,0.0,0.0,0.0,0.0,0.0,0.0,0.0,0.0,0.0,0.0,0.0,0.0,0.0,0.0,0.0,0.0
1403637133588319000,3080,1403637133588319000,world,odom,5422.642523688711,-28075.051593995206,-7662.275247009393,0.16780057916379648,-0.6321101642537994,-0.40852778853291416,0.6366983209305142,3.872947263675984,-0.5094844824139348,-1.1529851846214751,0.06827630589907761,0.11460900016482067,-0.07075526676153965,-0.5094844824139348,3.0753735096892174,1.1958388050312534,-0.024260214806774802,-0.059234752724721895,0.08671289492129211,-1.1529851846214751,1.1958388050312534,4.531859949295223,-0.05432016723955823,-0.12005494586553109,0.15240084229398232,0.06827630589907761,-0.024260214806774802,-0.05432016723955823,0.003483974470526988,0.0053196962825697545,-0.0034482339352927445,0.11460900016482067,-0.059234752724721895,-0.12005494586553109,0.0053196962825697545,0.00966796571470781,-0.007892297012150041,-0.07075526676153965,0.08671289492129211,0.15240084229398232,-0.0034482339352927445,-0.007892297012150041,0.011064376411485846,111.22146724111057,-630.6336270833477,-233.83795523219385,0.0,0.0,0.0,1.8580750644808925,-0.5325302297091454,-1.1857780829073574,0.0,0.0,0.0,-0.5325302297091454,1.0623162597157583,1.2368254565333436,0.0,0.0,0.0,-1.1857780829073574,1.2368254565333436,2.5425143541733495,0.0,0.0,0.0,0.0,0.0,0.0,0.0,0.0,0.0,0.0,0.0,0.0,0.0,0.0,0.0,0.0,0.0,0.0,0.0,0.0,0.0
1403637133638319000,3081,1403637133638319000,world,odom,5428.2053160810765,-28106.60642934842,-7673.9913712606285,0.16471071683936966,-0.6327009729606534,-0.41064399561229864,0.635555951463339,4.118035367523408,-0.5494044393758408,-1.269974943647227,0.07294490837731205,0.12232103478655397,-0.07538894919974287,-0.5494044393758408,3.1905773738539813,1.2531131222405512,-0.026688422168928277,-0.06060225659184193,0.0880835232242543,-1.269974943647227,1.2531131222405512,4.75239864499275,-0.060018874187875104,-0.12534801381395472,0.15652284348841222,0.07294490837731205,-0.026688422168928277,-0.060018874187875104,0.00354165742727455,0.00554716492130334,-0.0037027593363798774,0.12232103478655397,-0.06060225659184193,-0.12534801381395472,0.00554716492130334,0.009894635788565132,-0.007958216033395929,-0.07538894919974287,0.0880835232242543,0.15652284348841222,-0.0037027593363798774,-0.007958216033395929,0.011003317936827245,111.30445561901448,-631.0909308409764,-234.07902268823597,0.0,0.0,0.0,1.970019800371797,-0.555249898946696,-1.266223686332866,0.0,0.0,0.0,-0.555249898946696,1.0685235080114621,1.254445480394446,0.0,0.0,0.0,-1.266223686332866,1.254445480394446,2.608521628804079,0.0,0.0,0.0,0.0,0.0,0.0,0.0,0.0,0.0,0.0,0.0,0.0,0.0,0.0,0.0,0.0,0.0,0.0,0.0,0.0,0.0
1403637133688319000,3082,1403637133688319000,world,odom,5433.772746129636,-28138.172908833396,-7685.700164971067,0.1631202829895665,-0.6323251557997487,-0.413477225295155,0.6345023678304494,4.382420059844962,-0.6078174020734162,-1.4038836144909492,0.07732155728055695,0.13156018587586227,-0.08004265000006788,-0.6078174020734162,3.3562065897092968,1.3840654662832441,-0.028083893840953618,-0.06542249437716036,0.09382799792843317,-1.4038836144909492,1.3840654662832441,5.079916172379427,-0.06325829378176848,-0.13511498349734177,0.16657599829281877,0.07732155728055695,-0.028083893840953618,-0.06325829378176848,0.0036013465829685997,0.005712092670155537,-0.0037466073403207966,0.13156018587586227,-0.06542249437716036,-0.13511498349734177,0.005712092670155537,0.010367070554931863,-0.008257711590935135,-0.08004265000006788,0.09382799792843317,0.16657599829281877,-0.0037466073403207966,-0.008257711590935135,0.011295305428962264,111.39254284733153,-631.5706458359296,-234.27694896099206,0.0,0.0,0.0,2.099882413327309,-0.5975716926333592,-1.3646526718280019,0.0,0.0,0.0,-0.5975716926333592,1.12620972490569,1.3494790204052856,0.0,0.0,0.0,-1.3646526718280019,1.3494790204052856,2.7839011547003194,0.0,0.0,0.0,0.0,0.0,0.0,0.0,0.0,0.0,0.0,0.0,0.0,0.0,0.0,0.0,0.0,0.0,0.0,0.0,0.0,0.0
1403637133738319000,3083,1403637133738319000,world,odom,5439.344334201107,-28169.7633665307,-7697.419076222465,0.161697411510081,-0.6316037216795203,-0.41512210071292854,0.6345110931821476,4.660496791837625,-0.6703285597917871,-1.5476659061948501,0.08241119711234751,0.14075792754259442,-0.08486054640338096,-0.6703285597917871,3.5300726603388224,1.5259830555192961,-0.029912580785009725,-0.07022893531969973,0.0998707237222509,-1.5476659061948501,1.5259830555192961,5.429453624975102,-0.06737894341389605,-0.1448925176410426,0.17716581019526567,0.08241119711234751,-0.029912580785009725,-0.06737894341389605,0.0037123815531857887,0.005908562310763611,-0.003838931211486156,0.14075792754259442,-0.07022893531969973,-0.1448925176410426,0.005908562310763611,0.010781009732278064,-0.008533131316035798,-0.08486054640338096,0.0998707237222509,0.17716581019526567,-0.003838931211486156,-0.008533131316035798,0.011599182664261526,111.47801870703267,-632.0558595103283,-234.48407556477508,0.0,0.0,0.0,2.234553473437469,-0.6408204171176781,-1.4677645186411983,0.0,0.0,0.0,-0.6408204171176781,1.1847660691180504,1.4481048302681438,0.0,0.0,0.0,-1.4677645186411983,1.4481048302681438,2.969832346008916,0.0,0.0,0.0,0.0,0.0,0.0,0.0,0.0,0.0,0.0,0.0,0.0,0.0,0.0,0.0,0.0,0.0,0.0,0.0,0.0,0.0
1403637133788319000,3084,1403637133788319000,world,odom,5444.92006399733,-28201.378413893333,-7709.148456162752,0.1598070790136801,-0.6302591512648724,-0.41687412422272146,0.6351779784418986,4.957362286286901,-0.7387734081082938,-1.7049167935128622,0.08800646212605182,0.1505627110561566,-0.08961871530047313,-0.7387734081082938,3.7134136164684293,1.6810260909637553,-0.032031794887088,-0.07547750201988418,0.10610003777472976,-1.7049167935128622,1.6810260909637553,5.804868954714423,-0.07208065519117872,-0.15551388130764848,0.18803508580845574,0.08800646212605182,-0.032031794887088,-0.07208065519117872,0.0038447178584693326,0.006131871842030874,-0.003940888778110713,0.1505627110561566,-0.07547750201988418,-0.15551388130764848,0.006131871842030874,0.01122371075145278,-0.008807371964587342,-0.08961871530047313,0.10610003777472976,0.18803508580845574,-0.003940888778110713,-0.008807371964587342,0.011875147041533585,111.54439599692537,-632.5372642765564,-234.68490009221654,0.0,0.0,0.0,2.3754804568597248,-0.6899778005101195,-1.5760180304591684,0.0,0.0,0.0,-0.6899778005101195,1.2502791121326151,1.5560651791191817,0.0,0.0,0.0,-1.5760180304591684,1.5560651791191817,3.165748855149036,0.0,0.0,0.0,0.0,0.0,0.0,0.0,0.0,0.0,0.0,0.0,0.0,0.0,0.0,0.0,0.0,0.0,0.0,0.0,0.0,0.0
1403637133838319000,3085,1403637133838319000,world,odom,5450.498578270975,-28233.017671179678,-7720.886873816165,0.15555625439689585,-0.6290194847019231,-0.41989574649688355,0.6354717158592978,5.273198967938207,-0.8128891846904143,-1.8749251205972262,0.09376714352383046,0.16115654096560428,-0.09408399734497074,-0.8128891846904143,3.9063396617119412,1.8490465286242048,-0.034011914601303775,-0.08145565361677634,0.11233610796805309,-1.8749251205972262,1.8490465286242048,6.205351686015902,-0.07659405950445902,-0.16744649890371888,0.19882093820009733,0.09376714352383046,-0.034011914601303775,-0.07659405950445902,0.0039683061851410375,0.006356448499153593,-0.003999275088824418,0.16115654096560428,-0.08145565361677634,-0.16744649890371888,0.006356448499153593,0.011737310573109347,-0.00909622049555437,-0.09408399734497074,0.11233610796805309,0.19882093820009733,-0.003999275088824418,-0.00909622049555437,0.01209187399160371,111.60727925061099,-633.0416368139121,-234.86365911552159,0.0,0.0,0.0,2.5300753439733445,-0.7455327198257053,-1.6944677784811202,0.0,0.0,0.0,-0.7455327198257053,1.3243885028278792,1.6769706292800637,0.0,0.0,0.0,-1.6944677784811202,1.6769706292800637,3.3806181257841863,0.0,0.0,0.0,0.0,0.0,0.0,0.0,0.0,0.0,0.0,0.0,0.0,0.0,0.0,0.0,0.0,0.0,0.0,0.0,0.0,0.0
1403637133888319000,3086,1403637133888319000,world,odom,5456.0806890544245,-28264.682459986383,-7732.6347137434805,0.1502237379123518,-0.6288771108368326,-0.4226231909439457,0.6350874321772684,5.6108094260485135,-0.8941880015176842,-2.060807103752393,0.09981259273608936,0.1722297269935647,-0.0990741155137469,-0.8941880015176842,4.110267987938433,2.032673601943902,-0.03588240366679865,-0.08778904638319626,0.11901359719817599,-2.060807103752393,2.032673601943902,6.635948273334555,-0.08099899658527816,-0.18003623112173933,0.21041723419978695,0.09981259273608936,-0.03588240366679865,-0.08099899658527816,0.004089995854176136,0.006570010869008814,-0.0040481738849676655,0.1722297269935647,-0.08778904638319626,-0.18003623112173933,0.006570010869008814,0.012246722282106905,-0.009405846771318609,-0.0990741155137469,0.11901359719817599,0.21041723419978695,-0.0040481738849676655,-0.009405846771318609,0.012338302327498227,111.67691137441645,-633.5585308261943,-235.05086112440495,0.0,0.0,0.0,2.6973227675237315,-0.8034153480474338,-1.8234995785531667,0.0,0.0,0.0,-0.8034153480474338,1.3999102256776748,1.803870129416104,0.0,0.0,0.0,-1.8234995785531667,1.803870129416104,3.6135498572125293,0.0,0.0,0.0,0.0,0.0,0.0,0.0,0.0,0.0,0.0,0.0,0.0,0.0,0.0,0.0,0.0,0.0,0.0,0.0,0.0,0.0
1403637133938319000,3087,1403637133938319000,world,odom,5461.665905018071,-28296.3727274364,-7744.391203447169,0.14573718985455658,-0.6294003066340811,-0.4239275750820842,0.63474509575675,5.970031095771009,-0.9816956786911928,-2.261215606416383,0.10634509284500757,0.18336357457203845,-0.10474681409128828,-0.9816956786911928,4.324625172245139,2.230879373398664,-0.03793789745726632,-0.0939714966908779,0.12621820050702914,-2.261215606416383,2.230879373398664,7.095031450268776,-0.08581490189671712,-0.19240701493312712,0.22301319525423474,0.10634509284500757,-0.03793789745726632,-0.08581490189671712,0.004228393093826813,0.006781205679891158,-0.004128137198487401,0.18336357457203845,-0.0939714966908779,-0.19240701493312712,0.006781205679891158,0.012683175738114668,-0.00970573926059392,-0.10474681409128828,0.12621820050702914,0.22301319525423474,-0.004128137198487401,-0.00970573926059392,0.012639174414284138,111.75243271070444,-634.0650844745624,-235.2424293576975,0.0,0.0,0.0,2.86876489174163,-0.8611606175599215,-1.9551048099510475,0.0,0.0,0.0,-0.8611606175599215,1.47641993006565,1.9327332266515074,0.0,0.0,0.0,-1.9551048099510475,1.9327332266515074,3.851499010657413,0.0,0.0,0.0,0.0,0.0,0.0,0.0,0.0,0.0,0.0,0.0,0.0,0.0,0.0,0.0,0.0,0.0,0.0,0.0,0.0,0.0
1403637133988319000,3088,1403637133988319000,world,odom,5467.255581347705,-28328.088091141366,-7756.158468312596,0.1427502294791131,-0.6283634630704256,-0.42675713441806434,0.6345550240011381,6.353837630207397,-1.077471657337558,-2.479969989489125,0.11278747524161899,0.19575376210534065,-0.11014025512631376,-1.077471657337558,4.551245764338212,2.446925983737196,-0.04010101024617374,-0.10092038117203517,0.13355728857814597,-2.479969989489125,2.446925983737196,7.588520962713597,-0.0907717172121419,-0.20628002005989196,0.2357477226415489,0.11278747524161899,-0.04010101024617374,-0.0907717172121419,0.0043391969383009335,0.006998477982923895,-0.004185960784203581,0.19575376210534065,-0.10092038117203517,-0.20628002005989196,0.006998477982923895,0.013220193705752281,-0.01001302513923119,-0.11014025512631376,0.13355728857814597,0.2357477226415489,-0.004185960784203581,-0.01001302513923119,0.012895242364639228,111.83423778790521,-634.5445009950873,-235.452962276156,0.0,0.0,0.0,3.039774697089491,-0.917366289782081,-2.0869716719834637,0.0,0.0,0.0,-0.917366289782081,1.5514385749802055,2.059901267606884,0.0,0.0,0.0,-2.0869716719834637,2.059901267606884,4.089299934988355,0.0,0.0,0.0,0.0,0.0,0.0,0.0,0.0,0.0,0.0,0.0,0.0,0.0,0.0,0.0,0.0,0.0,0.0,0.0,0.0,0.0
1403637134038319000,3089,1403637134038319000,world,odom,5472.849125679597,-28359.826885410774,-7767.937339769273,0.14149213445290945,-0.626665203181754,-0.42898710917760025,0.6350124086729145,6.76103524842458,-1.1798672730274469,-2.7145109740338955,0.11964445596490332,0.20855043064556655,-0.11568292742822425,-1.1798672730274469,4.788967421771605,2.6786883239486783,-0.042666824391097175,-0.10790471360203391,0.14121196937420713,-2.7145109740338955,2.6786883239486783,8.112788114808309,-0.09646735741829872,-0.22032343785398267,0.24902446579241944,0.11964445596490332,-0.042666824391097175,-0.09646735741829872,0.004462998918737225,0.007230632178051177,-0.004273548495088526,0.20855043064556655,-0.10790471360203391,-0.22032343785398267,0.007230632178051177,0.013732702533245829,-0.010298474329123335,-0.11568292742822425,0.14121196937420713,0.24902446579241944,-0.004273548495088526,-0.010298474329123335,0.013161633576643782,111.89944353778564,-634.9926320409113,-235.67923817001812,0.0,0.0,0.0,3.206153651867714,-0.9741479372405095,-2.214418133775579,0.0,0.0,0.0,-0.9741479372405095,1.6272227588732,2.1862639381280906,0.0,0.0,0.0,-2.214418133775579,2.1862639381280906,4.320583328222747,0.0,0.0,0.0,0.0,0.0,0.0,0.0,0.0,0.0,0.0,0.0,0.0,0.0,0.0,0.0,0.0,0.0,0.0,0.0,0.0,0.0
1403637134088319000,3090,1403637134088319000,world,odom,5478.445889492747,-28391.587334312506,-7779.727060476846,0.14107975948200444,-0.623676318063776,-0.4338931433256563,0.6347133935296254,7.1949301319063235,-1.291118365163607,-2.9689560440234644,0.12570981720326485,0.2231304812321268,-0.12069258762297275,-1.291118365163607,5.039791729851743,2.929655733842247,-0.04485224490653059,-0.11603420393683245,0.14883940091579312,-2.9689560440234644,2.929655733842247,8.674045397371689,-0.10137260454169128,-0.23659659979445571,0.2621237895375491,0.12570981720326485,-0.04485224490653059,-0.10137260454169128,0.004514060810958671,0.007437036815833008,-0.004288480373378109,0.2231304812321268,-0.11603420393683245,-0.23659659979445571,0.007437036815833008,0.014411551455245147,-0.010608460554897108,-0.12069258762297275,0.14883940091579312,0.2621237895375491,-0.004288480373378109,-0.010608460554897108,0.013361752190118042,111.96903700437595,-635.4237442900178,-235.91708753487882,0.0,0.0,0.0,3.3744156753686565,-1.0303980894906806,-2.3438965760190493,0.0,0.0,0.0,-1.0303980894906806,1.7025590029953446,2.3127330821490677,0.0,0.0,0.0,-2.3438965760190493,2.3127330821490677,4.554759721188294,0.0,0.0,0.0,0.0,0.0,0.0,0.0,0.0,0.0,0.0,0.0,0.0,0.0,0.0,0.0,0.0,0.0,0.0,0.0,0.0,0.0
1403637134138319000,3091,1403637134138319000,world,odom,5484.045748541267,-28423.368979927956,-7791.52856585983,0.14047192398411884,-0.6198335743580576,-0.43953899133018554,0.6347278580392997,7.653795390694667,-1.4096570993869846,-3.2403216602599016,0.1318804467122788,0.2386595074579772,-0.12506116056804734,-1.4096570993869846,5.302731079198343,3.1978591736466573,-0.04714864273217281,-0.12486683738456972,0.1563512181088278,-3.2403216602599016,3.1978591736466573,9.268486912334298,-0.10647443576412424,-0.25419680049970006,0.27488175747766785,0.1318804467122788,-0.04714864273217281,-0.10647443576412424,0.004561105863228362,0.00765310516323889,-0.004284438882475136,0.2386595074579772,-0.12486683738456972,-0.25419680049970006,0.00765310516323889,0.015153809872999822,-0.01090280816220449,-0.12506116056804734,0.1563512181088278,0.27488175747766785,-0.004284438882475136,-0.01090280816220449,0.013500200599528361,112.03076228571202,-635.8412149628481,-236.15071384305148,0.0,0.0,0.0,3.5429270549078113,-1.0892693283100603,-2.472608963924257,0.0,0.0,0.0,-1.0892693283100603,1.7829806944043218,2.4440053363845626,0.0,0.0,0.0,-2.472608963924257,2.4440053363845626,4.789351829670741,0.0,0.0,0.0,0.0,0.0,0.0,0.0,0.0,0.0,0.0,0.0,0.0,0.0,0.0,0.0,0.0,0.0,0.0,0.0,0.0,0.0
1403637134188319000,3092,1403637134188319000,world,odom,5489.8870038263385,-28455.303032903343,-7803.60673513121,0.15018165879788703,-0.6113149662446885,-0.4451366940829188,0.6368616843451177,7.945960188007904,-1.4304211959057809,-3.3165009300662973,0.13105131807511677,0.242931971517251,-0.11961871020010652,-1.4304211959057809,5.520829552679612,3.36795803124219,-0.045835351949888935,-0.1276386744046754,0.1587853558637397,-3.3165009300662973,3.36795803124219,9.6628280152806,-0.10418358203024519,-0.2595025867930841,0.27725062991386745,0.13105131807511677,-0.045835351949888935,-0.10418358203024519,0.004341263732745661,0.007433521848522432,-0.003938271425465005,0.242931971517251,-0.1276386744046754,-0.2595025867930841,0.007433521848522432,0.015176363773422241,-0.01059332548262032,-0.11961871020010652,0.1587853558637397,0.27725062991386745,-0.003938271425465005,-0.01059332548262032,0.013155401501047359,112.28775227171,-636.3874335171876,-236.61545048428906,0.0,0.0,0.0,3.58095479285559,-1.0739651793769713,-2.452947337810496,0.0,0.0,0.0,-1.0739651793769713,1.8233874309695572,2.4964173957532423,0.0,0.0,0.0,-2.452947337810496,2.4964173957532423,4.86727129821335,0.0,0.0,0.0,0.0,0.0,0.0,0.0,0.0,0.0,0.0,0.0,0.0,0.0,0.0,0.0,0.0,0.0,0.0,0.0,0.0,0.0
