%time,field.header.seq,field.header.stamp,field.header.frame_id,field.child_frame_id,field.pose.pose.position.x,field.pose.pose.position.y,field.pose.pose.position.z,field.pose.pose.orientation.x,field.pose.pose.orientation.y,field.pose.pose.orientation.z,field.pose.pose.orientation.w,field.pose.covariance0,field.pose.covariance1,field.pose.covariance2,field.pose.covariance3,field.pose.covariance4,field.pose.covariance5,field.pose.covariance6,field.pose.covariance7,field.pose.covariance8,field.pose.covariance9,field.pose.covariance10,field.pose.covariance11,field.pose.covariance12,field.pose.covariance13,field.pose.covariance14,field.pose.covariance15,field.pose.covariance16,field.pose.covariance17,field.pose.covariance18,field.pose.covariance19,field.pose.covariance20,field.pose.covariance21,field.pose.covariance22,field.pose.covariance23,field.pose.covariance24,field.pose.covariance25,field.pose.covariance26,field.pose.covariance27,field.pose.covariance28,field.pose.covariance29,field.pose.covariance30,field.pose.covariance31,field.pose.covariance32,field.pose.covariance33,field.pose.covariance34,field.pose.covariance35,field.twist.twist.linear.x,field.twist.twist.linear.y,field.twist.twist.linear.z,field.twist.twist.angular.x,field.twist.twist.angular.y,field.twist.twist.angular.z,field.twist.covariance0,field.twist.covariance1,field.twist.covariance2,field.twist.covariance3,field.twist.covariance4,field.twist.covariance5,field.twist.covariance6,field.twist.covariance7,field.twist.covariance8,field.twist.covariance9,field.twist.covariance10,field.twist.covariance11,field.twist.covariance12,field.twist.covariance13,field.twist.covariance14,field.twist.covariance15,field.twist.covariance16,field.twist.covariance17,field.twist.covariance18,field.twist.covariance19,field.twist.covariance20,field.twist.covariance21,field.twist.covariance22,field.twist.covariance23,field.twist.covariance24,field.twist.covariance25,field.twist.covariance26,field.twist.covariance27,field.twist.covariance28,field.twist.covariance29,field.twist.covariance30,field.twist.covariance31,field.twist.covariance32,field.twist.covariance33,field.twist.covariance34,field.twist.covariance35
1403636859601666500,0,1403636859601666500,world,odom,0.0,0.0,0.0,-0.04031083997799652,-0.8102000165721747,0.0,0.5847657388448099,0.0,0.0,0.0,0.0,0.0,0.0,0.0,0.0,0.0,0.0,0.0,0.0,0.0,0.0,0.0,0.0,0.0,0.0,0.0,0.0,0.0,0.0,0.0,0.0,0.0,0.0,0.0,0.0,0.0,0.0,0.0,0.0,0.0,0.0,0.0,0.0,0.0,0.0,0.0,0.0,0.0,0.0,0.25,0.0,0.0,0.0,0.0,0.0,0.0,0.25,0.0,0.0,0.0,0.0,0.0,0.0,0.25,0.0,0.0,0.0,0.0,0.0,0.0,0.0,0.0,0.0,0.0,0.0,0.0,0.0,0.0,0.0,0.0,0.0,0.0,0.0,0.0,0.0
1403636859651666500,1,1403636859651666500,world,odom,0.0004210642655449844,-3.018404408699325e-05,0.00010118289037870415,-0.04025780530679011,-0.8083231103258018,-0.0031962763549346486,0.5873524003888679,0.0006251352530627466,1.5887927751620836e-13,-1.7097180782314425e-11,7.896898326465745e-09,1.1226287027523797e-07,5.4528368589353044e-09,1.5887927751620836e-13,0.0006251352535955425,3.878668525655373e-12,3.8364950906704185e-08,-7.803450194952986e-09,1.0571562621810478e-07,-1.7097180782314425e-11,3.878668525655373e-12,0.0006251347475727212,3.8011310724330985e-11,-3.84972289228715e-09,6.544708941229752e-10,7.896898326465745e-09,3.8364950906704185e-08,3.8011310724330985e-11,2.6249872731909214e-05,-7.019082598773161e-11,4.099597914550695e-11,1.1226287027523797e-07,-7.803450194952986e-09,-3.84972289228715e-09,-7.019082598773161e-11,2.6249914289567895e-05,-5.349072653191422e-11,5.4528368589353044e-09,1.0571562621810478e-07,6.544708941229752e-10,4.099597914550695e-11,-5.349072653191422e-11,2.6249850599039275e-05,0.01661612746907248,-0.003940845327196979,-0.0018500680594007513,0.0,0.0,0.0,0.2501517104149593,7.77417792376813e-10,-5.502088955963444e-08,0.0,0.0,0.0,7.77417792376813e-10,0.25015171188293545,2.1891526490584843e-08,0.0,0.0,0.0,-5.502088955963444e-08,2.1891526490584843e-08,0.2501500065598502,0.0,0.0,0.0,0.0,0.0,0.0,0.0,0.0,0.0,0.0,0.0,0.0,0.0,0.0,0.0,0.0,0.0,0.0,0.0,0.0,0.0
1403636859701666500,2,1403636859701666500,world,odom,0.001641000783923155,-0.00025487048914999463,-0.0006863349634814582,-0.040634257724833374,-0.804719349273037,-0.004080279058981986,0.5922490838553764,0.0025011826782569972,6.31819523991831e-12,-9.382489080034284e-10,1.1349128865684773e-07,1.6873948434107218e-06,8.629301991168689e-08,6.31819523991831e-12,0.0025011827111222334,1.5617801471069314e-10,5.607553012543661e-07,-1.1899873707028843e-07,1.5943641180964885e-06,-9.382489080034284e-10,1.5617801471069314e-10,0.0025011541162219954,-6.413819931105164e-10,-5.599651636004812e-08,5.824588688040716e-09,1.1349128865684773e-07,5.607553012543661e-07,-6.413819931105164e-10,0.00010249731740636461,-9.308542390703369e-10,1.974826481216377e-10,1.6873948434107218e-06,-1.1899873707028843e-07,-5.599651636004812e-08,-9.308542390703369e-10,0.00010250018735846738,-4.730464482064535e-10,8.629301991168689e-08,1.5943641180964885e-06,5.824588688040716e-09,1.974826481216377e-10,-4.730464482064535e-10,0.00010249710847035343,0.034401774506587116,0.00227161067062542,-0.024242956290352235,0.0,0.0,0.0,0.2503752711676702,-9.062833215097378e-09,-9.050884252031534e-07,0.0,0.0,0.0,-9.062833215097378e-09,0.25037530463939944,-2.4695828101578985e-07,0.0,0.0,0.0,-9.050884252031534e-07,-2.4695828101578985e-07,0.2503500681696129,0.0,0.0,0.0,0.0,0.0,0.0,0.0,0.0,0.0,0.0,0.0,0.0,0.0,0.0,0.0,0.0,0.0,0.0,0.0,0.0,0.0
1403636859751666500,3,1403636859751666500,world,odom,0.005387274040297147,0.0018008737088834816,-0.002260429781310891,-0.041325369964556026,-0.8003139851564813,-0.007126791311024666,0.5981128219707826,0.005610410879981591,-1.709152432554004e-05,-1.0832040233893695e-05,3.7943142237879914e-05,-1.1128043493588514e-05,-6.687919039367526e-06,-1.709152432554004e-05,0.005610487261960723,-3.743436007811832e-07,3.650517312903261e-05,-5.957320047183223e-06,-9.634775185338618e-06,-1.0832040233893695e-05,-3.743436007811832e-07,0.005599140451876719,1.55270393884762e-05,-3.973125634750745e-05,2.4327235263968134e-05,3.7943142237879914e-05,3.650517312903261e-05,1.55270393884762e-05,0.00013217674116988799,4.170547557092301e-05,2.177713293050605e-05,-1.1128043493588514e-05,-5.957320047183223e-06,-3.973125634750745e-05,4.170547557092301e-05,0.00016424649144366693,3.3546172816919094e-05,-6.687919039367526e-06,-9.634775185338618e-06,2.4327235263968134e-05,2.177713293050605e-05,3.3546172816919094e-05,0.00018285817225786156,0.06802202505331725,0.02285135412268612,-0.05610277959213528,0.0,0.0,0.0,0.24973897510226117,-0.0007426836728837846,-0.0006030362170255711,0.0,0.0,0.0,-0.0007426836728837846,0.24983142401989347,8.200683830963537e-05,0.0,0.0,0.0,-0.0006030362170255711,8.200683830963537e-05,0.24927003025117456,0.0,0.0,0.0,0.0,0.0,0.0,0.0,0.0,0.0,0.0,0.0,0.0,0.0,0.0,0.0,0.0,0.0,0.0,0.0,0.0,0.0
1403636859801666500,4,1403636859801666500,world,odom,0.009637999449636926,0.0032226182630483453,-0.005907165082733821,-0.04037661710287863,-0.7965451073360088,-0.0104125563101163,0.60313945273169,0.009976480084121062,-3.022164005021835e-05,-2.1147930441397173e-05,6.931380914314549e-05,-1.1278583511212682e-05,-9.068325713447907e-06,-3.022164005021835e-05,0.009978427618120457,9.053125712266759e-07,6.808423788780475e-05,-8.610082504619768e-06,-7.98833196701362e-06,-2.1147930441397173e-05,9.053125712266759e-07,0.00995757213688132,2.7190526912322018e-05,-7.097620682883821e-05,4.261348412618615e-05,6.931380914314549e-05,6.808423788780475e-05,2.7190526912322018e-05,0.00023380952575326294,7.27942051892142e-05,3.799197825139388e-05,-1.1278583511212682e-05,-8.610082504619768e-06,-7.097620682883821e-05,7.27942051892142e-05,0.0002910450520586979,5.9565799505555466e-05,-9.068325713447907e-06,-7.98833196701362e-06,4.261348412618615e-05,3.799197825139388e-05,5.9565799505555466e-05,0.00032513510031612796,0.09944109421709686,0.03645297505678844,-0.08345581836774463,0.0,0.0,0.0,0.250101090114729,-0.0006953236243267618,-0.0007529910723305556,0.0,0.0,0.0,-0.0006953236243267618,0.25032383152843346,0.00019412360921697871,0.0,0.0,0.0,-0.0007529910723305556,0.00019412360921697871,0.24958170172141977,0.0,0.0,0.0,0.0,0.0,0.0,0.0,0.0,0.0,0.0,0.0,0.0,0.0,0.0,0.0,0.0,0.0,0.0,0.0,0.0,0.0
1403636859851666500,5,1403636859851666500,world,odom,0.015435082289197285,0.005165385489425284,-0.011516164471209733,-0.0390512548542423,-0.7935112910912236,-0.013518378015217524,0.6071507916991348,0.015593887759698086,-4.6591220332618485e-05,-3.6802822717376936e-05,0.00011268684478538848,-7.275133215495866e-07,-9.051057455319553e-06,-4.6591220332618485e-05,0.015599801802693599,4.4462190661928535e-06,0.0001120997625996923,-9.80962388168095e-06,5.398543648499141e-06,-3.6802822717376936e-05,4.4462190661928535e-06,0.015565137664150356,4.212580676897507e-05,-0.00011161228713918011,6.583416411931234e-05,0.00011268684478538848,0.0001120997625996923,4.212580676897507e-05,0.0003637273715589652,0.00011238317616758987,5.826264783645704e-05,-7.275133215495866e-07,-9.80962388168095e-06,-0.00011161228713918011,0.00011238317616758987,0.00045468558666972937,9.320151390209989e-05,-9.051057455319553e-06,5.398543648499141e-06,6.583416411931234e-05,5.826264783645704e-05,9.320151390209989e-05,0.0005076825735838973,0.13673209276962311,0.037532701216825996,-0.1432761779491168,0.0,0.0,0.0,0.2506857323297955,-0.000592289083362196,-0.000941154490678371,0.0,0.0,0.0,-0.000592289083362196,0.2510566292194704,0.000326290061863031,0.0,0.0,0.0,-0.000941154490678371,0.000326290061863031,0.24996073576020933,0.0,0.0,0.0,0.0,0.0,0.0,0.0,0.0,0.0,0.0,0.0,0.0,0.0,0.0,0.0,0.0,0.0,0.0,0.0,0.0,0.0
1403636859901666500,6,1403636859901666500,world,odom,-0.0006267312136290018,0.05330254301486511,-0.01065226711234056,-0.04105284700974207,-0.7913215518516306,-0.015093597256207557,0.6098336237445335,0.020142486951009935,0.0038613908470342883,-0.0010820132543705387,-0.0003860972030194622,-0.0002655858678652181,7.986288722324207e-05,0.0038613908470342883,0.015239831649690436,-0.0003043512119402814,0.0010289714788885517,0.00019226600704532696,-0.00037282877592737245,-0.0010820132543705387,-0.0003043512119402814,0.01496202772514029,-0.0004691322078474611,-0.0013028411125055187,-0.0007877230579756329,-0.0003860972030194622,0.0010289714788885517,-0.0004691322078474611,0.00037850771850727076,5.0015217716952026e-05,6.603769825147532e-05,-0.0002655858678652181,0.00019226600704532696,-0.0013028411125055187,5.0015217716952026e-05,0.00047164479916256085,1.2250440206926591e-05,7.986288722324207e-05,-0.00037282877592737245,-0.0007877230579756329,6.603769825147532e-05,1.2250440206926591e-05,0.0006063664788027332,0.09279447627044275,0.2062820279251002,-0.15999702394266077,0.0,0.0,0.0,0.22365785938932933,0.04353063469911406,-0.016267856424565727,0.0,0.0,0.0,0.04353063469911406,0.17070090043396435,-0.0059239774250833075,0.0,0.0,0.0,-0.016267856424565727,-0.0059239774250833075,0.16795212396332584,0.0,0.0,0.0,0.0,0.0,0.0,0.0,0.0,0.0,0.0,0.0,0.0,0.0,0.0,0.0,0.0,0.0,0.0,0.0,0.0,0.0
1403636859951666500,7,1403636859951666500,world,odom,0.004844628331839944,0.06410808542220378,-0.02079585434869158,-0.041510234685316255,-0.789561213964776,-0.014452207851314625,0.6120956816601973,0.027445120604253692,0.005213087721381676,-0.00155032760103599,-0.0005445745547012118,-0.0003285811222952193,0.00011704335086395604,0.005213087721381676,0.02068300974931576,-0.00046188161530729094,0.0014019331774312886,0.0002525735496604255,-0.0004626129072425941,-0.00155032760103599,-0.00046188161530729094,0.02039282789493929,-0.0006484375325210203,-0.0017671277079148256,-0.0010773696760152033,-0.0005445745547012118,0.0014019331774312886,-0.0006484375325210203,0.0005161038930191033,6.840535847664434e-05,8.976242523568496e-05,-0.0003285811222952193,0.0002525735496604255,-0.0017671277079148256,6.840535847664434e-05,0.000640994225295368,1.5646091561940876e-05,0.00011704335086395604,-0.0004626129072425941,-0.0010773696760152033,8.976242523568496e-05,1.5646091561940876e-05,0.0008249513072152836,0.1263215093256103,0.23062139209957078,-0.2501650252323062,0.0,0.0,0.0,0.22422312185609025,0.04330575762247479,-0.018234192095092118,0.0,0.0,0.0,0.04330575762247479,0.1710910170221208,-0.007118145054628275,0.0,0.0,0.0,-0.018234192095092118,-0.007118145054628275,0.16883504409677996,0.0,0.0,0.0,0.0,0.0,0.0,0.0,0.0,0.0,0.0,0.0,0.0,0.0,0.0,0.0,0.0,0.0,0.0,0.0,0.0,0.0
1403636860001666500,8,1403636860001666500,world,odom,0.01180339685562151,0.07655965427441719,-0.036244498168448276,-0.042144245713179124,-0.7886398514298888,-0.014111940826911471,0.6132470141924933,0.035823442208393785,0.006824553967968761,-0.002156958104748348,-0.0007055860292426509,-0.00038161580164681455,0.00016012747585833319,0.006824553967968761,0.027035037970299082,-0.0006823137202870756,0.0018472210944378126,0.0003244170749719027,-0.0005489568075356989,-0.002156958104748348,-0.0006823137202870756,0.02667917537831247,-0.0008537155855092931,-0.0023095853718334077,-0.0014054582613161853,-0.0007055860292426509,0.0018472210944378126,-0.0008537155855092931,0.000674944604909862,8.963597551095456e-05,0.00011751002087786041,-0.00038161580164681455,0.0003244170749719027,-0.0023095853718334077,8.963597551095456e-05,0.0008368663553449683,2.03162406756564e-05,0.00016012747585833319,-0.0005489568075356989,-0.0014054582613161853,0.00011751002087786041,2.03162406756564e-05,0.0010765710756028492,0.14730546023756136,0.2681676290443885,-0.3710163458879414,0.0,0.0,0.0,0.22468819372770857,0.04352395564645786,-0.02046533125580456,0.0,0.0,0.0,0.04352395564645786,0.1723212178997749,-0.00846637495591759,0.0,0.0,0.0,-0.02046533125580456,-0.00846637495591759,0.16977919449953838,0.0,0.0,0.0,0.0,0.0,0.0,0.0,0.0,0.0,0.0,0.0,0.0,0.0,0.0,0.0,0.0,0.0,0.0,0.0,0.0,0.0
1403636860051666500,9,1403636860051666500,world,odom,0.019419328154962348,0.09072766844450832,-0.058663922107531984,-0.04332821035410946,-0.7885713542676764,-0.013654280354654073,0.6132629501640788,0.045316646137160334,0.00865755534371877,-0.0029104379916681314,-0.0008856714800849846,-0.00041804913751077445,0.00021403545620246215,0.00865755534371877,0.034250575184064165,-0.0009708857457763254,0.002359026612937888,0.00040248864994875747,-0.0006237819918456238,-0.0029104379916681314,-0.0009708857457763254,0.033825395686088874,-0.0010952466605416132,-0.0029229799285560723,-0.0017783242101396153,-0.0008856714800849846,0.002359026612937888,-0.0010952466605416132,0.0008560376252723883,0.00011393448505089124,0.00015027648139300052,-0.00041804913751077445,0.00040248864994875747,-0.0029229799285560723,0.00011393448505089124,0.0010585376335363482,2.49988705816596e-05,0.00021403545620246215,-0.0006237819918456238,-0.0017783242101396153,0.00015027648139300052,2.49988705816596e-05,0.0013609776156354766,0.16023480632018475,0.3010646216277317,-0.5377410340357577,0.0,0.0,0.0,0.2254280579373182,0.043769861081387244,-0.02270539694223302,0.0,0.0,0.0,0.043769861081387244,0.17382655665027255,-0.009825877590374486,0.0,0.0,0.0,-0.02270539694223302,-0.009825877590374486,0.17070798845029397,0.0,0.0,0.0,0.0,0.0,0.0,0.0,0.0,0.0,0.0,0.0,0.0,0.0,0.0,0.0,0.0,0.0,0.0,0.0,0.0,0.0
1403636860101666500,10,1403636860101666500,world,odom,0.08117402735767437,0.1233029170278211,-0.0593387783507716,-0.04744210247773594,-0.7885547001559522,-0.017404101415087823,0.6128848415717114,0.04104505986057492,0.008509994557952157,-0.004223540165188427,0.0011996300085408665,-2.3289797134204517e-05,-0.00021323094078904282,0.008509994557952157,0.036312510635119435,-0.004685661841509349,0.0023424484017171916,0.001081707265036039,0.0002549980074911293,-0.004223540165188427,-0.004685661841509349,0.03628218312930399,-0.0012983731107939198,-0.0034783549982089503,-0.0012701836625874422,0.0011996300085408665,0.0023424484017171916,-0.0012983731107939198,0.0004259823069638224,0.00033232460906646344,0.00022172626301549832,-2.3289797134204517e-05,0.001081707265036039,-0.0034783549982089503,0.00033232460906646344,0.0007834839160705193,0.0004531563671905514,-0.00021323094078904282,0.0002549980074911293,-0.0012701836625874422,0.00022172626301549832,0.0004531563671905514,0.0008010932747083408,0.28459372844843656,0.3461995239580943,-0.6622256334137405,0.0,0.0,0.0,0.1676191386730763,0.03810569921596006,-0.02622298538212356,0.0,0.0,0.0,0.03810569921596006,0.1533491671730619,-0.0226311904028242,0.0,0.0,0.0,-0.02622298538212356,-0.0226311904028242,0.1488776780137248,0.0,0.0,0.0,0.0,0.0,0.0,0.0,0.0,0.0,0.0,0.0,0.0,0.0,0.0,0.0,0.0,0.0,0.0,0.0,0.0,0.0
1403636860151666500,11,1403636860151666500,world,odom,0.09591935034825608,0.14110921292438824,-0.09713103319609614,-0.04878681043214909,-0.7896181393553563,-0.0154018738270841,0.6114620375881542,0.04965222265354288,0.010434901505295927,-0.005380096015282825,0.0014714428637090304,3.496534561891943e-05,-0.0002219760747816508,0.010434901505295927,0.04440339149449461,-0.00583917664419067,0.0028823828029767773,0.0013539925061360914,0.00037085171828985485,-0.005380096015282825,-0.00583917664419067,0.04398678237692792,-0.0015793649607334947,-0.004201141700555766,-0.001570922251599487,0.0014714428637090304,0.0028823828029767773,-0.0015793649607334947,0.0005183770475232125,0.0004015693573719603,0.0002730765993842172,3.496534561891943e-05,0.0013539925061360914,-0.004201141700555766,0.0004015693573719603,0.0009395063657526466,0.0005460633537293664,-0.0002219760747816508,0.00037085171828985485,-0.001570922251599487,0.0002730765993842172,0.0005460633537293664,0.0009768021323728106,0.30955041110317283,0.365220202516892,-0.8525166249286091,0.0,0.0,0.0,0.16884760016787156,0.03967858360717445,-0.028704184567170228,0.0,0.0,0.0,0.03967858360717445,0.15690434736253936,-0.02387856727796599,0.0,0.0,0.0,-0.028704184567170228,-0.02387856727796599,0.14995110247878324,0.0,0.0,0.0,0.0,0.0,0.0,0.0,0.0,0.0,0.0,0.0,0.0,0.0,0.0,0.0,0.0,0.0,0.0,0.0,0.0,0.0
1403636860201666500,12,1403636860201666500,world,odom,0.10624900695151229,0.16293845544054883,-0.13099388446060065,-0.04924054079950045,-0.7917018418995894,-0.013445020165948765,0.6087715450867489,0.058071840536849204,0.01182760336345057,-0.006437190842325654,0.0018075846456696459,3.783322401172004e-05,-0.0002875202389407616,0.01182760336345057,0.05216836272058436,-0.006965960541046264,0.0034617976067358863,0.0014583151804986169,0.000407424932202262,-0.006437190842325654,-0.006965960541046264,0.05096479139738414,-0.0017790819387835618,-0.004606692852388492,-0.001554707426492219,0.0018075846456696459,0.0034617976067358863,-0.0017790819387835618,0.0006013638866815039,0.0004311521161288073,0.0003117871804257066,3.783322401172004e-05,0.0014583151804986169,-0.004606692852388492,0.0004311521161288073,0.0009502487635887356,0.000555365681033232,-0.0002875202389407616,0.000407424932202262,-0.001554707426492219,0.0003117871804257066,0.000555365681033232,0.001064594546256797,0.3344868707538553,0.3685982649566206,-1.0059274066368649,0.0,0.0,0.0,0.16690672741054835,0.03871469654197765,-0.02966463936902264,0.0,0.0,0.0,0.03871469654197765,0.15705142304936875,-0.02405179493764493,0.0,0.0,0.0,-0.02966463936902264,-0.02405179493764493,0.14681916402316614,0.0,0.0,0.0,0.0,0.0,0.0,0.0,0.0,0.0,0.0,0.0,0.0,0.0,0.0,0.0,0.0,0.0,0.0,0.0,0.0,0.0
1403636860251666500,13,1403636860251666500,world,odom,0.12381540312434638,0.18139171233197324,-0.18475389303057924,-0.05023555755308541,-0.7942965751162747,-0.008869280581293444,0.6053847333538047,0.06822142624546217,0.014025199236032179,-0.007975554748848073,0.002158795767307491,0.00012126262864636975,-0.00030317829905187216,0.014025199236032179,0.06149915970123344,-0.008332752817507078,0.004112226105491226,0.0017466659247745934,0.0005171214423317109,-0.007975554748848073,-0.008332752817507078,0.05995406441275852,-0.0021339206144456676,-0.005417077326918019,-0.0017774881441689101,0.002158795767307491,0.004112226105491226,-0.0021339206144456676,0.0007186885059523867,0.0005163827434442557,0.0003709113382663644,0.00012126262864636975,0.0017466659247745934,-0.005417077326918019,0.0005163827434442557,0.0011193310114737099,0.000645233315351443,-0.00030317829905187216,0.0005171214423317109,-0.0017774881441689101,0.0003709113382663644,0.000645233315351443,0.0012345881338630496,0.36959078805118717,0.370606584734831,-1.1451546091513334,0.0,0.0,0.0,0.16907434111925443,0.04082637002601085,-0.03293132119734549,0.0,0.0,0.0,0.04082637002601085,0.1608165386612929,-0.025303169487419744,0.0,0.0,0.0,-0.03293132119734549,-0.025303169487419744,0.14811400696148694,0.0,0.0,0.0,0.0,0.0,0.0,0.0,0.0,0.0,0.0,0.0,0.0,0.0,0.0,0.0,0.0,0.0,0.0,0.0,0.0,0.0
1403636860301666500,14,1403636860301666500,world,odom,0.10499122248005499,0.21967340727414492,-0.2260766857605772,-0.05396556669814874,-0.7965559935157089,-0.002581031481715954,0.6021458337326929,0.05337885199101637,0.02470120657996088,-0.0041928099756372034,0.0021292689641630985,0.0001741172790702431,0.00034981466282442354,0.02470120657996088,0.06754641114259959,-0.011385431912912095,0.005219958182987165,0.0018992045893089337,0.0004719767017676243,-0.0041928099756372034,-0.011385431912912095,0.06729282304834461,-0.0026686230647051967,-0.006582132564590198,-0.0027398625268889375,0.0021292689641630985,0.005219958182987165,-0.0026686230647051967,0.0007491190439884617,0.0005308573808451492,0.00036067058826641735,0.0001741172790702431,0.0018992045893089337,-0.006582132564590198,0.0005308573808451492,0.0010758155350006856,0.0005870263015065372,0.00034981466282442354,0.0004719767017676243,-0.0027398625268889375,0.00036067058826641735,0.0005870263015065372,0.0010593957493436523,0.3611646003470851,0.43169971318391437,-1.2014054440599076,0.0,0.0,0.0,0.11715147831105946,0.06132382162149388,-0.026290961165735746,0.0,0.0,0.0,0.06132382162149388,0.15581026919688595,-0.03186785863924178,0.0,0.0,0.0,-0.026290961165735746,-0.03186785863924178,0.1448485885009956,0.0,0.0,0.0,0.0,0.0,0.0,0.0,0.0,0.0,0.0,0.0,0.0,0.0,0.0,0.0,0.0,0.0,0.0,0.0,0.0,0.0
1403636860351666500,15,1403636860351666500,world,odom,0.051918470571750794,0.1857624858597252,-0.2601794728564218,-0.05562615348084053,-0.8019999881024896,-0.0015775462469419957,0.5947262071578581,0.03869279017486141,0.017303593691904665,-0.0015148520057899912,0.001098514558598952,-0.0005748474831708701,-0.000197831068948515,0.017303593691904665,0.056032699015074565,-0.012119610943968157,0.004684711584002217,0.0010414308133011147,-0.0008922325079565457,-0.0015148520057899912,-0.012119610943968157,0.0737583538316276,-0.0033679544269156194,-0.007893498142856507,-0.0035092120299860226,0.001098514558598952,0.004684711584002217,-0.0033679544269156194,0.0007026426033169439,0.00046257628983499425,0.00024240206673335716,-0.0005748474831708701,0.0010414308133011147,-0.007893498142856507,0.00046257628983499425,0.0010708413549048517,0.0004897319277434693,-0.000197831068948515,-0.0008922325079565457,-0.0035092120299860226,0.00024240206673335716,0.0004897319277434693,0.0009112271991581382,0.30369681001021637,0.3665019382704007,-1.2226078398007623,0.0,0.0,0.0,0.0732659053283684,0.03749480567815659,-0.024546252464960696,0.0,0.0,0.0,0.03749480567815659,0.11118807717074605,-0.032539294256795546,0.0,0.0,0.0,-0.024546252464960696,-0.032539294256795546,0.14014540647148682,0.0,0.0,0.0,0.0,0.0,0.0,0.0,0.0,0.0,0.0,0.0,0.0,0.0,0.0,0.0,0.0,0.0,0.0,0.0,0.0,0.0
1403636860401666500,16,1403636860401666500,world,odom,0.01294193277550091,0.16755113671336402,-0.23654812313756418,-0.05549477180380782,-0.8092575529047642,-0.004436930971237425,0.5848101033776627,0.01996265649229336,0.015509126311091978,-0.003555214438440401,0.0012040460650600848,-0.00021458131778268573,-0.00011664914866955441,0.015509126311091978,0.04194219138558975,-0.014324080535106292,0.0044162368230606305,0.0012939418895798098,-0.001341991788801671,-0.003555214438440401,-0.014324080535106292,0.0581312487162107,-0.0035779315934182064,-0.007210159100360819,-0.0036161291951961323,0.0012040460650600848,0.0044162368230606305,-0.0035779315934182064,0.0006317283608351331,0.00041979481324207744,6.546702928017738e-05,-0.00021458131778268573,0.0012939418895798098,-0.007210159100360819,0.00041979481324207744,0.000996078376574435,0.00042913998350013684,-0.00011664914866955441,-0.001341991788801671,-0.0036161291951961323,6.546702928017738e-05,0.00042913998350013684,0.0005797518745926984,0.27533461203096776,0.3110988594697388,-1.1320674974499751,0.0,0.0,0.0,0.0382937753424245,0.031753490914499985,-0.026948188695613724,0.0,0.0,0.0,0.031753490914499985,0.07392551915962635,-0.03474562518903955,0.0,0.0,0.0,-0.026948188695613724,-0.03474562518903955,0.10011136177338487,0.0,0.0,0.0,0.0,0.0,0.0,0.0,0.0,0.0,0.0,0.0,0.0,0.0,0.0,0.0,0.0,0.0,0.0,0.0,0.0,0.0
1403636860451666500,17,1403636860451666500,world,odom,0.037857911415181744,0.16180164376239592,-0.28105684449117124,-0.05980111758592227,-0.8159325172893193,-0.0016493302845057764,0.5750436794496588,0.020472415247668407,0.018533159795658668,-0.004861717353107375,0.0016319767059358808,1.0355811837750739e-05,-0.00026153325005113935,0.018533159795658668,0.04510728489961179,-0.015994134202418943,0.004703768056875534,0.0014777747334858186,-0.0013751618418221842,-0.004861717353107375,-0.015994134202418943,0.06497992311135808,-0.003978403597508114,-0.00805391425864543,-0.004051060349428676,0.0016319767059358808,0.004703768056875534,-0.003978403597508114,0.0006622816165604325,0.0004681521961130907,8.762380580208627e-05,1.0355811837750739e-05,0.0014777747334858186,-0.00805391425864543,0.0004681521961130907,0.0010938633975343718,0.0004992777914674127,-0.00026153325005113935,-0.0013751618418221842,-0.004051060349428676,8.762380580208627e-05,0.0004992777914674127,0.0006115572397255409,0.3130869997790427,0.3049133489756908,-1.1204096490027253,0.0,0.0,0.0,0.03904126938491881,0.03522236487913048,-0.03176546061315486,0.0,0.0,0.0,0.03522236487913048,0.07276420576601102,-0.03639480590263859,0.0,0.0,0.0,-0.03176546061315486,-0.03639480590263859,0.10021538562737796,0.0,0.0,0.0,0.0,0.0,0.0,0.0,0.0,0.0,0.0,0.0,0.0,0.0,0.0,0.0,0.0,0.0,0.0,0.0,0.0,0.0
1403636860501666500,18,1403636860501666500,world,odom,-0.023584048965466856,0.029404631130384024,-0.08246096136421921,-0.06311619534692692,-0.8292026855147209,-0.010198140783555623,0.5552794342893156,0.01290497672801552,0.010028811195755265,-0.0031893083076234216,0.0011564597187873856,0.0001572831290783032,-3.513472831804554e-05,0.010028811195755265,0.024036621514060313,-0.01078033212083645,0.002905406863301117,0.0011660869264675132,-0.0006126059652265586,-0.0031893083076234216,-0.01078033212083645,0.045219720460882705,-0.0026047965568036496,-0.0060532221348395575,-0.002190335075715163,0.0011564597187873856,0.002905406863301117,-0.0026047965568036496,0.00044624452117673777,0.0003315812028367879,4.9491329686476935e-05,0.0001572831290783032,0.0011660869264675132,-0.0060532221348395575,0.0003315812028367879,0.0008743573824901532,0.0002944838315486796,-3.513472831804554e-05,-0.0006126059652265586,-0.002190335075715163,4.9491329686476935e-05,0.0002944838315486796,0.00033433310216448924,0.19589317288055114,0.09906361130150454,-0.7903361547815125,0.0,0.0,0.0,0.0276258824734174,0.020086419819925892,-0.02337223100633061,0.0,0.0,0.0,0.020086419819925892,0.03804070053737489,-0.0214617363939719,0.0,0.0,0.0,-0.02337223100633061,-0.0214617363939719,0.06416285269329529,0.0,0.0,0.0,0.0,0.0,0.0,0.0,0.0,0.0,0.0,0.0,0.0,0.0,0.0,0.0,0.0,0.0,0.0,0.0,0.0,0.0
1403636860551666500,19,1403636860551666500,world,odom,-0.010317642668347565,0.042951383503256696,-0.11310812129473097,-0.06353274592646456,-0.8345337050998722,-0.006361746956511824,0.5472445645440293,0.012121430622986802,0.006660676219283304,0.0008090907535994003,0.0007413433041573851,-0.00027708481358424113,-7.103130800430303e-05,0.006660676219283304,0.01422112229223002,-0.0029270544959828404,0.0017900795481620366,0.0003531123252362701,-0.0005441850371350073,0.0008090907535994003,-0.0029270544959828404,0.025742006850506045,-0.0013340641243855924,-0.0038134453925824634,-0.0015404894797003085,0.0007413433041573851,0.0017900795481620366,-0.0013340641243855924,0.0003167968481247618,0.0001940730017936985,4.204881209708111e-05,-0.00027708481358424113,0.0003531123252362701,-0.0038134453925824634,0.0001940730017936985,0.0006245498662358106,0.0002116621963926178,-7.103130800430303e-05,-0.0005441850371350073,-0.0015404894797003085,4.204881209708111e-05,0.0002116621963926178,0.00030903693653863375,0.21837691426254086,0.12747403737576843,-0.7268854238197349,0.0,0.0,0.0,0.02188907539497101,0.01172142492810502,-0.011435202492463482,0.0,0.0,0.0,0.01172142492810502,0.022649939650960082,-0.007993710086216497,0.0,0.0,0.0,-0.011435202492463482,-0.007993710086216497,0.03417894721006081,0.0,0.0,0.0,0.0,0.0,0.0,0.0,0.0,0.0,0.0,0.0,0.0,0.0,0.0,0.0,0.0,0.0,0.0,0.0,0.0,0.0
1403636860601666500,20,1403636860601666500,world,odom,0.01891164720080579,0.045225857285338,-0.11895988441809469,-0.06511482698726494,-0.8401655868271489,-0.004521775485115532,0.5383877780598972,0.008557511728003366,0.003344465695972202,-0.00045205499068718064,0.0005044872968320495,1.4433990728104451e-05,-1.9405331620602318e-05,0.003344465695972202,0.008988034101497868,-0.0012893324538184548,0.0011279741415714437,0.00014066410347633794,-0.00047156003351490905,-0.00045205499068718064,-0.0012893324538184548,0.01728348129546894,-0.0007723033651756815,-0.002739616050963345,-0.0009855618914703045,0.0005044872968320495,0.0011279741415714437,-0.0007723033651756815,0.00021356400127536213,0.00012278027221578319,2.4426239525702806e-05,1.4433990728104451e-05,0.00014066410347633794,-0.002739616050963345,0.00012278027221578319,0.00047952916422840477,0.00016461072695796175,-1.9405331620602318e-05,-0.00047156003351490905,-0.0009855618914703045,2.4426239525702806e-05,0.00016461072695796175,0.0002407214725839919,0.24831377696725515,0.12108118075444442,-0.6404907151826127,0.0,0.0,0.0,0.018389699979993318,0.006209459093107375,-0.00947060074648583,0.0,0.0,0.0,0.006209459093107375,0.014894741914650957,-0.004093277858312769,0.0,0.0,0.0,-0.00947060074648583,-0.004093277858312769,0.02242552590498565,0.0,0.0,0.0,0.0,0.0,0.0,0.0,0.0,0.0,0.0,0.0,0.0,0.0,0.0,0.0,0.0,0.0,0.0,0.0,0.0,0.0
1403636860651666500,21,1403636860651666500,world,odom,0.02299538163139284,0.04863485301377318,-0.14146899757426648,-0.06410996315569951,-0.8432023914100839,-0.0026107276611627333,0.5337535234971003,0.008376240598871315,0.003491715926995886,-0.0005828724440288316,0.000443698926915802,-2.305622395290403e-05,-4.195756956810567e-05,0.003491715926995886,0.009883755503095448,-0.0013362287709248965,0.0012045932676473532,0.0001097733486642457,-0.0005464396431288405,-0.0005828724440288316,-0.0013362287709248965,0.018375300938378594,-0.0007529304786340627,-0.002832791319737797,-0.0009315836679602632,0.000443698926915802,0.0012045932676473532,-0.0007529304786340627,0.00021222128780150766,0.00010604549526402884,5.889707264861365e-06,-2.305622395290403e-05,0.0001097733486642457,-0.002832791319737797,0.00010604549526402884,0.0004805292277022193,0.00014349728824053552,-4.195756956810567e-05,-0.0005464396431288405,-0.0009315836679602632,5.889707264861365e-06,0.00014349728824053552,0.00022678005329857345,0.2557753025996718,0.13542890051481024,-0.5733017299307613,0.0,0.0,0.0,0.01839239633279949,0.0059057903877767735,-0.01031396260147392,0.0,0.0,0.0,0.0059057903877767735,0.01533726365366785,-0.004014243892599915,0.0,0.0,0.0,-0.01031396260147392,-0.004014243892599915,0.022581617371058103,0.0,0.0,0.0,0.0,0.0,0.0,0.0,0.0,0.0,0.0,0.0,0.0,0.0,0.0,0.0,0.0,0.0,0.0,0.0,0.0,0.0
1403636860701666500,22,1403636860701666500,world,odom,0.03753696756793327,0.05134555536383116,-0.15917030033854687,-0.062224373010298706,-0.844855098487985,-0.0012156278232068349,0.5313628818531905,0.009182279258049146,0.004228900937771025,-0.001513299367715124,0.0005646826039958817,0.0001308710638131694,-4.859639795981555e-05,0.004228900937771025,0.00966378253405883,-0.0007689090353378758,0.0011048667677499486,1.146037222526188e-05,-0.0005251359478978012,-0.001513299367715124,-0.0007689090353378758,0.018983442423112656,-0.0006659730852305037,-0.002874213031042871,-0.0010828307244452162,0.0005646826039958817,0.0011048667677499486,-0.0006659730852305037,0.00018964801137879333,9.300501732761105e-05,9.621955054384966e-06,0.0001308710638131694,1.146037222526188e-05,-0.002874213031042871,9.300501732761105e-05,0.0004829608403041174,0.00017259966017428252,-4.859639795981555e-05,-0.0005251359478978012,-0.0010828307244452162,9.621955054384966e-06,0.00017259966017428252,0.00023527955629099362,0.2632396461010416,0.14218999550404493,-0.48317317410379457,0.0,0.0,0.0,0.021012088123562644,0.006599192305468044,-0.011532652464936875,0.0,0.0,0.0,0.006599192305468044,0.015254035355144049,-0.0038062221020945613,0.0,0.0,0.0,-0.011532652464936875,-0.0038062221020945613,0.02222492514363239,0.0,0.0,0.0,0.0,0.0,0.0,0.0,0.0,0.0,0.0,0.0,0.0,0.0,0.0,0.0,0.0,0.0,0.0,0.0,0.0,0.0
1403636860751666500,23,1403636860751666500,world,odom,0.05123690741053461,0.05869889426312802,-0.17866198227753016,-0.05928488151859993,-0.8452231721283298,-0.0029150258718289826,0.5311069522655639,0.010158698979531606,0.004668994877608652,-0.002230666383111029,0.0006306845214311559,0.0002412102281850138,-6.769519796092378e-06,0.004668994877608652,0.010646871686695234,-0.0010020799316636814,0.001220503600062176,4.516876446183517e-05,-0.0005353990747281735,-0.002230666383111029,-0.0010020799316636814,0.02081350288800629,-0.0006959282341024581,-0.0031358078918445774,-0.0011795680626662404,0.0006306845214311559,0.001220503600062176,-0.0006959282341024581,0.00020581859484536467,9.738864537889144e-05,8.793995447215121e-06,0.0002412102281850138,4.516876446183517e-05,-0.0031358078918445774,9.738864537889144e-05,0.0005274465838367885,0.0001874778257196764,-6.769519796092378e-06,-0.0005353990747281735,-0.0011795680626662404,8.793995447215121e-06,0.0001874778257196764,0.00025555461538454363,0.27717533020755764,0.1619254795640325,-0.38238725702471493,0.0,0.0,0.0,0.024245033010223675,0.007520584616132619,-0.013257326477176496,0.0,0.0,0.0,0.007520584616132619,0.016655168826987563,-0.004309091984357909,0.0,0.0,0.0,-0.013257326477176496,-0.004309091984357909,0.022916580367559128,0.0,0.0,0.0,0.0,0.0,0.0,0.0,0.0,0.0,0.0,0.0,0.0,0.0,0.0,0.0,0.0,0.0,0.0,0.0,0.0,0.0
1403636860801666500,24,1403636860801666500,world,odom,0.06538066195809482,0.06712154219857175,-0.19524893652933054,-0.05555095032439012,-0.8451365481820712,-0.00507245354936449,0.5316319940146006,0.011354586149958362,0.005175611951848642,-0.003143496021730698,0.0007078435218069994,0.0003872361386980538,4.260745820875563e-05,0.005175611951848642,0.011747276293338932,-0.001309604654081169,0.0013498122542210144,9.407479156278977e-05,-0.0005313929408236222,-0.003143496021730698,-0.001309604654081169,0.022882037865984764,-0.000718691282100092,-0.0034291795957815917,-0.0012895546417717456,0.0007078435218069994,0.0013498122542210144,-0.000718691282100092,0.00022325450413435618,0.00010140513834423924,7.254922874748248e-06,0.0003872361386980538,9.407479156278977e-05,-0.0034291795957815917,0.00010140513834423924,0.0005777235439447776,0.00020458764124147723,4.260745820875563e-05,-0.0005313929408236222,-0.0012895546417717456,7.254922874748248e-06,0.00020458764124147723,0.00027917375608959064,0.28700933845470955,0.1761962531096191,-0.276622940768147,0.0,0.0,0.0,0.028350706611581282,0.008648046275300763,-0.015161254835836387,0.0,0.0,0.0,0.008648046275300763,0.01848047142001987,-0.0049019183739367235,0.0,0.0,0.0,-0.015161254835836387,-0.0049019183739367235,0.02378652103173293,0.0,0.0,0.0,0.0,0.0,0.0,0.0,0.0,0.0,0.0,0.0,0.0,0.0,0.0,0.0,0.0,0.0,0.0,0.0,0.0,0.0
1403636860851666500,25,1403636860851666500,world,odom,0.07862894029724107,0.075205615022712,-0.20214546494437502,-0.05200779799411825,-0.845160339961524,-0.007031860090301103,0.5319302037369138,0.012700305239230446,0.005713760252050999,-0.004175784703360172,0.000786953462930885,0.0005541714461450421,9.682423968686472e-05,0.005713760252050999,0.012911300391839376,-0.0016385338260643564,0.0014820944139051179,0.00014680719576408083,-0.000522055110727677,-0.004175784703360172,-0.0016385338260643564,0.02487667954200861,-0.0007374983676734132,-0.0037063032444731338,-0.0013863291342233433,0.000786953462930885,0.0014820944139051179,-0.0007374983676734132,0.00024099635161144566,0.0001049194439732456,5.153544155103364e-06,0.0005541714461450421,0.00014680719576408083,-0.0037063032444731338,0.0001049194439732456,0.0006255346974794469,0.00021974520133757975,9.682423968686472e-05,-0.000522055110727677,-0.0013863291342233433,5.153544155103364e-06,0.00021974520133757975,0.00030158173783267515,0.2945018494109273,0.18969028537362378,-0.15625916774699056,0.0,0.0,0.0,0.03295776981866646,0.009832385595257875,-0.017001900635389373,0.0,0.0,0.0,0.009832385595257875,0.0203940581563285,-0.0054195707521986405,0.0,0.0,0.0,-0.017001900635389373,-0.0054195707521986405,0.02449017171282918,0.0,0.0,0.0,0.0,0.0,0.0,0.0,0.0,0.0,0.0,0.0,0.0,0.0,0.0,0.0,0.0,0.0,0.0,0.0,0.0,0.0
1403636860901666500,26,1403636860901666500,world,odom,0.09360377435316602,0.08510117438734405,-0.20708896235886023,-0.048976202268122715,-0.8450458406453792,-0.007580087792900106,0.5323921497246068,0.014284861380557692,0.006341492961814184,-0.00546699155322074,0.0008756101640016579,0.0007620109768063409,0.00016736594476088107,0.006341492961814184,0.014230439836223728,-0.002060808397317848,0.0016270654223122737,0.0002106088751702945,-0.0004994181487313023,-0.00546699155322074,-0.002060808397317848,0.027197986846793053,-0.0007673153006715128,-0.004024797393953922,-0.001497454584043965,0.0008756101640016579,0.0016270654223122737,-0.0007673153006715128,0.0002605060081147141,0.00010976854877690297,3.5837248683836836e-06,0.0007620109768063409,0.0002106088751702945,-0.004024797393953922,0.00010976854877690297,0.0006802391341726838,0.00023740237959735884,0.00016736594476088107,-0.0004994181487313023,-0.001497454584043965,3.5837248683836836e-06,0.00023740237959735884,0.00032626510673131856,0.3075267219859375,0.2065677605702358,-0.043293224685048606,0.0,0.0,0.0,0.03846868462605823,0.011359969794223133,-0.01911373122058781,0.0,0.0,0.0,0.011359969794223133,0.02276539603840106,-0.006078617569034244,0.0,0.0,0.0,-0.01911373122058781,-0.006078617569034244,0.025478479501710952,0.0,0.0,0.0,0.0,0.0,0.0,0.0,0.0,0.0,0.0,0.0,0.0,0.0,0.0,0.0,0.0,0.0,0.0,0.0,0.0,0.0
1403636860951666500,27,1403636860951666500,world,odom,0.10825234458478773,0.09456714194570025,-0.20235302109516612,-0.04621400216793649,-0.8446666587576871,-0.007470004385703071,0.5332416906255778,0.01606911065641847,0.007016527933870568,-0.006889340352576649,0.0009665998887736459,0.0009901781426002825,0.00024276875141534987,0.007016527933870568,0.01563971612741004,-0.0025056085222651663,0.0017767101246127142,0.0002754978404989186,-0.00047075101167959234,-0.006889340352576649,-0.0025056085222651663,0.029434227951063603,-0.000796540512493706,-0.0043241432801402625,-0.001589347244892655,0.0009665998887736459,0.0017767101246127142,-0.000796540512493706,0.0002804669614439917,0.00011417322604930627,1.4735188054889852e-06,0.0009901781426002825,0.0002754978404989186,-0.0043241432801402625,0.00011417322604930627,0.0007316309135880729,0.0002523266476404698,0.00024276875141534987,-0.00047075101167959234,-0.001589347244892655,1.4735188054889852e-06,0.0002523266476404698,0.00034814341590819745,0.31842137456316194,0.2160361604815049,0.05446396085329302,0.0,0.0,0.0,0.04422732214938214,0.012871872324845348,-0.021049706253382323,0.0,0.0,0.0,0.012871872324845348,0.025085558428028433,-0.006613188390516235,0.0,0.0,0.0,-0.021049706253382323,-0.006613188390516235,0.02627391639474768,0.0,0.0,0.0,0.0,0.0,0.0,0.0,0.0,0.0,0.0,0.0,0.0,0.0,0.0,0.0,0.0,0.0,0.0,0.0,0.0,0.0
1403636861001666500,28,1403636861001666500,world,odom,0.1243561556105679,0.1059965906529931,-0.19775546935199345,-0.044318828052844955,-0.8429478717546294,-0.008168135083237877,0.5361044754090617,0.018197762062570674,0.0078092078692236465,-0.00862525180983992,0.0010664144975851171,0.0012698910636458156,0.0003458160307275999,0.0078092078692236465,0.017249154504267752,-0.0030614805849511514,0.0019419438732936345,0.00035834714269662943,-0.0004140229337910913,-0.00862525180983992,-0.0030614805849511514,0.03203606109090754,-0.0008232312854046897,-0.004664314775297031,-0.0017177381626338863,0.0010664144975851171,0.0019419438732936345,-0.0008232312854046897,0.00030196294875010427,0.00011819375136928187,-2.5804080039383394e-07,0.0012698910636458156,0.00035834714269662943,-0.004664314775297031,0.00011819375136928187,0.000789445309337029,0.00027219332548296784,0.0003458160307275999,-0.0004140229337910913,-0.0017177381626338863,-2.5804080039383394e-07,0.00027219332548296784,0.0003751145662490819,0.3263414517788495,0.23850359635160095,0.12192784682597571,0.0,0.0,0.0,0.05084114590865021,0.014688171867090061,-0.023166178252774894,0.0,0.0,0.0,0.014688171867090061,0.027885117703703426,-0.007281454802143648,0.0,0.0,0.0,-0.023166178252774894,-0.007281454802143648,0.027328389794382707,0.0,0.0,0.0,0.0,0.0,0.0,0.0,0.0,0.0,0.0,0.0,0.0,0.0,0.0,0.0,0.0,0.0,0.0,0.0,0.0,0.0
1403636861051666500,29,1403636861051666500,world,odom,0.13647469192856293,0.11440935910522844,-0.1801198848616707,-0.04345294403150257,-0.8400396785252512,-0.008518175689074852,0.5407149164218773,0.020535933599691532,0.00859692311128325,-0.010378666619267073,0.001164694783638641,0.00155160241490109,0.0004452928788548521,0.00859692311128325,0.018898423624888264,-0.003536855261194413,0.0021067245581254147,0.0004233658154878319,-0.0003532819310580471,-0.010378666619267073,-0.003536855261194413,0.034315244978013415,-0.0008430334935023785,-0.00494935956130986,-0.0018101616108067563,0.001164694783638641,0.0021067245581254147,-0.0008430334935023785,0.0003238748280569608,0.00012055641588263275,-3.1192521555769837e-06,0.00155160241490109,0.0004233658154878319,-0.00494935956130986,0.00012055641588263275,0.0008382096465821907,0.00028659448731922354,0.0004452928788548521,-0.0003532819310580471,-0.0018101616108067563,-3.1192521555769837e-06,0.00028659448731922354,0.0003968104615231642,0.32743790045012316,0.23980668985397477,0.16373357536490363,0.0,0.0,0.0,0.05708193862643119,0.016039905366299165,-0.024779039988332557,0.0,0.0,0.0,0.016039905366299165,0.030184680765686638,-0.007594337957221996,0.0,0.0,0.0,-0.024779039988332557,-0.007594337957221996,0.027991896561612734,0.0,0.0,0.0,0.0,0.0,0.0,0.0,0.0,0.0,0.0,0.0,0.0,0.0,0.0,0.0,0.0,0.0,0.0,0.0,0.0,0.0
1403636861101666500,30,1403636861101666500,world,odom,0.15302033663156503,0.12684205428070872,-0.17147807754114128,-0.04334228868145501,-0.8353217753772123,-0.0092742175997063,0.547971684013352,0.023380392249819956,0.009588797026382986,-0.012587459783103406,0.0012738865934411262,0.0019050915709686285,0.0005923263571969981,0.009588797026382986,0.02083994097694673,-0.004223539547422038,0.0022900926319622313,0.0005214093647487886,-0.00024554466439708395,-0.012587459783103406,-0.004223539547422038,0.03720035013161989,-0.0008618901406562525,-0.005305599749686937,-0.001963837665227108,0.0012738865934411262,0.0022900926319622313,-0.0008618901406562525,0.00034781217709142597,0.0001227071437344562,-4.954067334447625e-06,0.0019050915709686285,0.0005214093647487886,-0.005305599749686937,0.0001227071437344562,0.0008978549668570677,0.0003095326779855227,0.0005923263571969981,-0.00024554466439708395,-0.001963837665227108,-4.954067334447625e-06,0.0003095326779855227,0.0004263722342626812,0.33617861461018317,0.254287614571288,0.17454438688827326,0.0,0.0,0.0,0.06451696301466779,0.01804003921519591,-0.026813695278106696,0.0,0.0,0.0,0.01804003921519591,0.033277011750500726,-0.008222943068999306,0.0,0.0,0.0,-0.026813695278106696,-0.008222943068999306,0.029114626029871683,0.0,0.0,0.0,0.0,0.0,0.0,0.0,0.0,0.0,0.0,0.0,0.0,0.0,0.0,0.0,0.0,0.0,0.0,0.0,0.0,0.0
1403636861151666500,31,1403636861151666500,world,odom,0.16228541238867608,0.13394045944537225,-0.14665057010556024,-0.04293397479759586,-0.8298956132386145,-0.01081181821291429,0.5561591944059852,0.02637857885680784,0.010465504746954955,-0.014627123579686192,0.0013694099277269407,0.0022360799068997673,0.0007165197826555668,0.010465504746954955,0.022728813937547478,-0.004670646893662707,0.0024615592418648475,0.0005818827134978948,-0.00015061868706512112,-0.014627123579686192,-0.004670646893662707,0.03945314464780902,-0.0008540024559824654,-0.005566924822697995,-0.0020521270739397267,0.0013694099277269407,0.0024615592418648475,-0.0008540024559824654,0.00037115780002159807,0.00012094940824295512,-9.435350654802816e-06,0.0022360799068997673,0.0005818827134978948,-0.005566924822697995,0.00012094940824295512,0.0009430189567658152,0.00032262683396987396,0.0007165197826555668,-0.00015061868706512112,-0.0020521270739397267,-9.435350654802816e-06,0.00032262683396987396,0.00044704992697309744,0.33473275234445554,0.2632263525029796,0.18003930434790774,0.0,0.0,0.0,0.07105180370070037,0.019056397462617572,-0.028147739741939442,0.0,0.0,0.0,0.019056397462617572,0.035417423384037194,-0.00832771965243915,0.0,0.0,0.0,-0.028147739741939442,-0.00832771965243915,0.029693878433956936,0.0,0.0,0.0,0.0,0.0,0.0,0.0,0.0,0.0,0.0,0.0,0.0,0.0,0.0,0.0,0.0,0.0,0.0,0.0,0.0,0.0
1403636861201666500,32,1403636861201666500,world,odom,0.17938097509773274,0.14715136720375352,-0.1376647935557133,-0.04207340577826293,-0.8231444948364859,-0.011920726095758746,0.5661456221114441,0.03011779149398575,0.01168097622466447,-0.017331208935263655,0.0014744525401840071,0.002673153129486981,0.0009055595763863477,0.01168097622466447,0.025052909491068618,-0.0054780036416630755,0.0026526391318640497,0.0007020172195450513,7.77834985254656e-06,-0.017331208935263655,-0.0054780036416630755,0.04262757813529241,-0.0008432704783577646,-0.005944110175999492,-0.00221630619687219,0.0014744525401840071,0.0026526391318640497,-0.0008432704783577646,0.00039668953921242475,0.00011912230249353718,-1.280666878041608e-05,0.002673153129486981,0.0007020172195450513,-0.005944110175999492,0.00011912230249353718,0.0010063127991921871,0.0003469882344721766,0.0009055595763863477,7.77834985254656e-06,-0.00221630619687219,-1.280666878041608e-05,0.0003469882344721766,0.00047757136477241685,0.35501582536785065,0.2669982992525331,0.1682959638253953,0.0,0.0,0.0,0.07956555467314008,0.021290300615978957,-0.0302673975614339,0.0,0.0,0.0,0.021290300615978957,0.03888487152984464,-0.008949159863920867,0.0,0.0,0.0,-0.0302673975614339,-0.008949159863920867,0.03095568917728302,0.0,0.0,0.0,0.0,0.0,0.0,0.0,0.0,0.0,0.0,0.0,0.0,0.0,0.0,0.0,0.0,0.0,0.0,0.0,0.0,0.0
1403636861251666500,33,1403636861251666500,world,odom,0.18857759358527232,0.15326797091109404,-0.11203026375531358,-0.0409705824978819,-0.8164957907820587,-0.01340652342728031,0.5757397850892005,0.034012502634613084,0.012700898471169838,-0.019754447649955445,0.0015634503317213033,0.0030756960262524804,0.0010581831892819476,0.012700898471169838,0.027202556677315342,-0.0059271669282670685,0.0028252322495878395,0.0007663518664904564,0.00012808995919495758,-0.019754447649955445,-0.0059271669282670685,0.0449866678652809,-0.0008121664550864206,-0.006210871650419999,-0.002298318822183066,0.0015634503317213033,0.0028252322495878395,-0.0008121664550864206,0.00042190417184490085,0.00011427227028034715,-1.880888867650986e-05,0.0030756960262524804,0.0007663518664904564,-0.006210871650419999,0.00011427227028034715,0.0010539935550996499,0.0003596587003942928,0.0010581831892819476,0.00012808995919495758,-0.002298318822183066,-1.880888867650986e-05,0.0003596587003942928,0.0004966933001499729,0.3682461743848884,0.2662282501582526,0.15552660133296325,0.0,0.0,0.0,0.08694799143885867,0.02232309358422879,-0.03159064113221684,0.0,0.0,0.0,0.02232309358422879,0.040955635282607795,-0.00897029727432309,0.0,0.0,0.0,-0.03159064113221684,-0.00897029727432309,0.03155620071336558,0.0,0.0,0.0,0.0,0.0,0.0,0.0,0.0,0.0,0.0,0.0,0.0,0.0,0.0,0.0,0.0,0.0,0.0,0.0,0.0,0.0
1403636861301666500,34,1403636861301666500,world,odom,0.2075713137323071,0.16668578376172466,-0.10535773499123877,-0.04117220536778376,-0.8093944516350488,-0.013209497372835968,0.5856713928020635,0.038862042031640995,0.014177137369245939,-0.022993338285239806,0.0016773500650904064,0.0035965413692246725,0.0012813238168393045,0.014177137369245939,0.029976464649329147,-0.0068532692351762434,0.003022621539781769,0.0008952051337319265,0.0003242327052914816,-0.022993338285239806,-0.0068532692351762434,0.04847700031915958,-0.0008125142355757881,-0.006606581457370251,-0.002462487794608399,0.0016773500650904064,0.003022621539781769,-0.0008125142355757881,0.0004502415182749541,0.00011321087041272704,-2.1515589116562194e-05,0.0035965413692246725,0.0008952051337319265,-0.006606581457370251,0.00011321087041272704,0.0011201434208876386,0.0003842084431555927,0.0012813238168393045,0.0003242327052914816,-0.002462487794608399,-2.1515589116562194e-05,0.0003842084431555927,0.00052744665560891,0.3918222771363022,0.2748915720432581,0.10018342293655103,0.0,0.0,0.0,0.09613016570943227,0.024629732939704017,-0.03369650891919113,0.0,0.0,0.0,0.024629732939704017,0.04461700617177591,-0.009576191112285505,0.0,0.0,0.0,-0.03369650891919113,-0.009576191112285505,0.032925258297473885,0.0,0.0,0.0,0.0,0.0,0.0,0.0,0.0,0.0,0.0,0.0,0.0,0.0,0.0,0.0,0.0,0.0,0.0,0.0,0.0,0.0
1403636861351666500,35,1403636861351666500,world,odom,0.21429926987967074,0.16920670131890075,-0.0773168161056194,-0.04126650884435509,-0.8038061747844987,-0.014539134081978143,0.5932801380513738,0.04366172849457897,0.015200576132340608,-0.025640319567401,0.0017722310941482465,0.004036141504371251,0.0014300732174872765,0.015200576132340608,0.03225031227157901,-0.007146156814594018,0.0031921764175734703,0.000927873410590736,0.0004236958465033732,-0.025640319567401,-0.007146156814594018,0.05075746780472397,-0.0007939760607766228,-0.006843754081333932,-0.002516926397645613,0.0017722310941482465,0.0031921764175734703,-0.0007939760607766228,0.0004776024104432405,0.00010955150735035641,-2.7538698239858618e-05,0.004036141504371251,0.000927873410590736,-0.006843754081333932,0.00010955150735035641,0.0011630200696324741,0.0003923374852421852,0.0014300732174872765,0.0004236958465033732,-0.002516926397645613,-2.7538698239858618e-05,0.0003923374852421852,0.0005421872093267758,0.39347337846416325,0.2702216554788323,0.02213395923858133,0.0,0.0,0.0,0.10274162578408555,0.024848833207786067,-0.034504258010504316,0.0,0.0,0.0,0.024848833207786067,0.04568588901372098,-0.009271903711449946,0.0,0.0,0.0,-0.034504258010504316,-0.009271903711449946,0.033287048970076484,0.0,0.0,0.0,0.0,0.0,0.0,0.0,0.0,0.0,0.0,0.0,0.0,0.0,0.0,0.0,0.0,0.0,0.0,0.0,0.0,0.0
1403636861401666500,36,1403636861401666500,world,odom,0.23407326236441361,0.1826082395575901,-0.07923152466898241,-0.043265656165945805,-0.7982178557513581,-0.014175654234525797,0.6006458095943543,0.04979284017451997,0.01693427149439968,-0.02939548297899414,0.0019095342434698012,0.004633730194522438,0.0016832869881634655,0.01693427149439968,0.035460231529669504,-0.008159492710090114,0.0033961093589252203,0.0010593590194640397,0.0006341818258746206,-0.02939548297899414,-0.008159492710090114,0.05455214032068796,-0.0008220628569748503,-0.007247848398083149,-0.0026942279030203846,0.0019095342434698012,0.0033961093589252203,-0.0008220628569748503,0.0005080588536201423,0.00011193670413333495,-2.874453642507946e-05,0.004633730194522438,0.0010593590194640397,-0.007247848398083149,0.00011193670413333495,0.0012295133380686501,0.0004179482248667137,0.0016832869881634655,0.0006341818258746206,-0.0026942279030203846,-2.874453642507946e-05,0.0004179482248667137,0.0005755425176454301,0.4002460586561301,0.26862966101608804,-0.10951374706039556,0.0,0.0,0.0,0.11165195048667909,0.02693466961091015,-0.036178771882965706,0.0,0.0,0.0,0.02693466961091015,0.049096040976146754,-0.00970930146350029,0.0,0.0,0.0,-0.036178771882965706,-0.00970930146350029,0.0345386126896047,0.0,0.0,0.0,0.0,0.0,0.0,0.0,0.0,0.0,0.0,0.0,0.0,0.0,0.0,0.0,0.0,0.0,0.0,0.0,0.0,0.0
1403636861451666500,37,1403636861451666500,world,odom,0.23981423344466027,0.18338993011044485,-0.05672056764437699,-0.04321821642495506,-0.794548814351164,-0.01597997504115997,0.6054494262776118,0.05545656738999825,0.018234957059337663,-0.03212392918159561,0.0020121398650703596,0.005087753584074536,0.0018519405787144558,0.018234957059337663,0.03783674205606466,-0.008544234155708878,0.003572746251061563,0.0011151548320146355,0.0007055267887186745,-0.03212392918159561,-0.008544234155708878,0.056622044316368816,-0.0008156400149105807,-0.007440692424274234,-0.002750358079135778,0.0020121398650703596,0.003572746251061563,-0.0008156400149105807,0.000535547820763384,0.00011067316326903596,-3.31228756885322e-05,0.005087753584074536,0.0011151548320146355,-0.007440692424274234,0.00011067316326903596,0.0012640345588314616,0.0004256694198463179,0.0018519405787144558,0.0007055267887186745,-0.002750358079135778,-3.31228756885322e-05,0.0004256694198463179,0.00058679773081714,0.39868640066970956,0.2527157027191353,-0.2528578004971337,0.0,0.0,0.0,0.11665763117433973,0.02719520589226849,-0.03638836661836957,0.0,0.0,0.0,0.02719520589226849,0.04910704838424204,-0.00935474464467223,0.0,0.0,0.0,-0.03638836661836957,-0.00935474464467223,0.03457378246637373,0.0,0.0,0.0,0.0,0.0,0.0,0.0,0.0,0.0,0.0,0.0,0.0,0.0,0.0,0.0,0.0,0.0,0.0,0.0,0.0,0.0
1403636861501666500,38,1403636861501666500,world,odom,0.25993441678067897,0.19592551431430474,-0.07410943134966051,-0.04459650352487936,-0.7916033029669852,-0.016483784576501886,0.6091827701528914,0.06296876398878286,0.020255617926560446,-0.03634580960323146,0.0021620907106599512,0.0057634621212113366,0.002123866513862129,0.020255617926560446,0.04148603617841947,-0.009637366594242212,0.003786470539630133,0.0012645451781954082,0.0009089249084695953,-0.03634580960323146,-0.009637366594242212,0.06069996197943288,-0.0008483824489250101,-0.007856319606706012,-0.002930318554122815,0.0021620907106599512,0.003786470539630133,-0.0008483824489250101,0.0005665727353323001,0.00011476837449323159,-3.478772044810912e-05,0.0057634621212113366,0.0012645451781954082,-0.007856319606706012,0.00011476837449323159,0.0013322886300199993,0.00045122839496382697,0.002123866513862129,0.0009089249084695953,-0.002930318554122815,-3.478772044810912e-05,0.00045122839496382697,0.0006219624312943947,0.4063044053670868,0.25261908314067555,-0.44482139247927316,0.0,0.0,0.0,0.1251422722817833,0.029070110751475343,-0.03785421400106649,0.0,0.0,0.0,0.029070110751475343,0.05226372085558546,-0.00971700946973375,0.0,0.0,0.0,-0.03785421400106649,-0.00971700946973375,0.03587115127951019,0.0,0.0,0.0,0.0,0.0,0.0,0.0,0.0,0.0,0.0,0.0,0.0,0.0,0.0,0.0,0.0,0.0,0.0,0.0,0.0,0.0
1403636861551666500,39,1403636861551666500,world,odom,0.25657119235938597,0.18979941867269767,-0.05491150343855826,-0.04443322675366393,-0.7919677160021151,-0.01922618407370335,0.608640434917542,0.06890978842361557,0.021395793594243272,-0.0385164096409596,0.0022693791035839667,0.006143768401826936,0.002233229488402732,0.021395793594243272,0.04358110080926841,-0.009690286485103238,0.003966941242015962,0.0012790581426107765,0.0008689641924204556,-0.0385164096409596,-0.009690286485103238,0.061997004801022784,-0.0008477449696017731,-0.007937826179770287,-0.0029318129070873334,0.0022693791035839667,0.003966941242015962,-0.0008477449696017731,0.0005937320284856971,0.00011532344855969089,-4.0650831737356884e-05,0.006143768401826936,0.0012790581426107765,-0.007937826179770287,0.00011532344855969089,0.0013498581303958003,0.0004503905291197514,0.002233229488402732,0.0008689641924204556,-0.0029318129070873334,-4.0650831737356884e-05,0.0004503905291197514,0.0006253926294406112,0.3851964545799487,0.22683619131372745,-0.5923387368124298,0.0,0.0,0.0,0.12830053937549454,0.02856167310074738,-0.037169460736519604,0.0,0.0,0.0,0.02856167310074738,0.05085774380115455,-0.009060627691293982,0.0,0.0,0.0,-0.037169460736519604,-0.009060627691293982,0.035306583717216906,0.0,0.0,0.0,0.0,0.0,0.0,0.0,0.0,0.0,0.0,0.0,0.0,0.0,0.0,0.0,0.0,0.0,0.0,0.0,0.0,0.0
1403636861601666500,40,1403636861601666500,world,odom,0.2761364205024394,0.2009768237477973,-0.08928203854567844,-0.04467411985610918,-0.7935246711931967,-0.01913184329756069,0.6065944211702321,0.07785122159220456,0.023678617510878637,-0.04312194339687369,0.0024545776935700845,0.006893234779638865,0.002480778536605614,0.023678617510878637,0.04754121445956826,-0.01082438051301113,0.004197000796192161,0.0014456112993636641,0.0010194293456889528,-0.04312194339687369,-0.01082438051301113,0.06629972233803332,-0.0009069775588227665,-0.00836523053462231,-0.0030851612135303725,0.0024545776935700845,0.004197000796192161,-0.0009069775588227665,0.0006244731288268311,0.00012460296115261567,-4.3267089875646175e-05,0.006893234779638865,0.0014456112993636641,-0.00836523053462231,0.00012460296115261567,0.0014211874098799145,0.0004727806727394853,0.002480778536605614,0.0010194293456889528,-0.0030851612135303725,-4.3267089875646175e-05,0.0004727806727394853,0.0006604926166124379,0.3992829278763406,0.21980750459417672,-0.7775073871200922,0.0,0.0,0.0,0.1376178852883043,0.03057509841802846,-0.03872747963700021,0.0,0.0,0.0,0.03057509841802846,0.05408273738966433,-0.009411601119760818,0.0,0.0,0.0,-0.03872747963700021,-0.009411601119760818,0.036663685415792256,0.0,0.0,0.0,0.0,0.0,0.0,0.0,0.0,0.0,0.0,0.0,0.0,0.0,0.0,0.0,0.0,0.0,0.0,0.0,0.0,0.0
1403636861651666500,41,1403636861651666500,world,odom,0.27018542057985406,0.1942711408976404,-0.08532219962094559,-0.04404122906999517,-0.79753929202548,-0.018543222272094977,0.6013714299210332,0.08410206959602054,0.02472748161042858,-0.04494739435626699,0.0026009195134257604,0.007226206313304187,0.0024855757946629035,0.02472748161042858,0.04969948004649875,-0.010666844528381784,0.004402200540317071,0.001423105753371871,0.000881908388602148,-0.04494739435626699,-0.010666844528381784,0.06736535986547486,-0.000946184045338905,-0.00840738526912366,-0.0029980253354168073,0.0026009195134257604,0.004402200540317071,-0.000946184045338905,0.0006530613511998531,0.00012963396526243333,-5.0521473829264094e-05,0.007226206313304187,0.001423105753371871,-0.00840738526912366,0.00012963396526243333,0.0014339557746384823,0.00046131296160635386,0.0024855757946629035,0.000881908388602148,-0.0029980253354168073,-5.0521473829264094e-05,0.00046131296160635386,0.0006555418782324753,0.37669447847618337,0.18796388185113244,-0.8838440017719641,0.0,0.0,0.0,0.14084538527713136,0.02998177615923416,-0.03794873451703808,0.0,0.0,0.0,0.02998177615923416,0.05268084860823737,-0.008717860161998409,0.0,0.0,0.0,-0.03794873451703808,-0.008717860161998409,0.03604069463245199,0.0,0.0,0.0,0.0,0.0,0.0,0.0,0.0,0.0,0.0,0.0,0.0,0.0,0.0,0.0,0.0,0.0,0.0,0.0,0.0,0.0
1403636861701666500,42,1403636861701666500,world,odom,0.2894925882744721,0.20344269011608587,-0.13257598060505474,-0.0434525002517673,-0.8011515359783814,-0.017722452959188475,0.5966188157294906,0.09458441865121421,0.027262986189558393,-0.049944124736140974,0.0028178277928142224,0.008050183240045021,0.002710689701708462,0.027262986189558393,0.05402486448628415,-0.011831743623327971,0.004651262144792612,0.0016000462046078827,0.000999483221615896,-0.049944124736140974,-0.011831743623327971,0.07189148587152301,-0.0010231270748208765,-0.00884411686271865,-0.003124029344422986,0.0028178277928142224,0.004651262144792612,-0.0010231270748208765,0.0006842426640890759,0.00014188904680764974,-5.424902190883377e-05,0.008050183240045021,0.0016000462046078827,-0.00884411686271865,0.00014188904680764974,0.0015078773571539918,0.0004806484644518011,0.002710689701708462,0.000999483221615896,-0.003124029344422986,-5.424902190883377e-05,0.0004806484644518011,0.0006897455403283642,0.3959475457662904,0.17946161378814318,-0.998588311166405,0.0,0.0,0.0,0.15268246068690133,0.03253261408604935,-0.03989709862154375,0.0,0.0,0.0,0.03253261408604935,0.05648516077958539,-0.009146172442476074,0.0,0.0,0.0,-0.03989709862154375,-0.009146172442476074,0.0374616376861609,0.0,0.0,0.0,0.0,0.0,0.0,0.0,0.0,0.0,0.0,0.0,0.0,0.0,0.0,0.0,0.0,0.0,0.0,0.0,0.0,0.0
