%time,field.header.seq,field.header.stamp,field.header.frame_id,field.child_frame_id,field.pose.pose.position.x,field.pose.pose.position.y,field.pose.pose.position.z,field.pose.pose.orientation.x,field.pose.pose.orientation.y,field.pose.pose.orientation.z,field.pose.pose.orientation.w,field.pose.covariance0,field.pose.covariance1,field.pose.covariance2,field.pose.covariance3,field.pose.covariance4,field.pose.covariance5,field.pose.covariance6,field.pose.covariance7,field.pose.covariance8,field.pose.covariance9,field.pose.covariance10,field.pose.covariance11,field.pose.covariance12,field.pose.covariance13,field.pose.covariance14,field.pose.covariance15,field.pose.covariance16,field.pose.covariance17,field.pose.covariance18,field.pose.covariance19,field.pose.covariance20,field.pose.covariance21,field.pose.covariance22,field.pose.covariance23,field.pose.covariance24,field.pose.covariance25,field.pose.covariance26,field.pose.covariance27,field.pose.covariance28,field.pose.covariance29,field.pose.covariance30,field.pose.covariance31,field.pose.covariance32,field.pose.covariance33,field.pose.covariance34,field.pose.covariance35,field.twist.twist.linear.x,field.twist.twist.linear.y,field.twist.twist.linear.z,field.twist.twist.angular.x,field.twist.twist.angular.y,field.twist.twist.angular.z,field.twist.covariance0,field.twist.covariance1,field.twist.covariance2,field.twist.covariance3,field.twist.covariance4,field.twist.covariance5,field.twist.covariance6,field.twist.covariance7,field.twist.covariance8,field.twist.covariance9,field.twist.covariance10,field.twist.covariance11,field.twist.covariance12,field.twist.covariance13,field.twist.covariance14,field.twist.covariance15,field.twist.covariance16,field.twist.covariance17,field.twist.covariance18,field.twist.covariance19,field.twist.covariance20,field.twist.covariance21,field.twist.covariance22,field.twist.covariance23,field.twist.covariance24,field.twist.covariance25,field.twist.covariance26,field.twist.covariance27,field.twist.covariance28,field.twist.covariance29,field.twist.covariance30,field.twist.covariance31,field.twist.covariance32,field.twist.covariance33,field.twist.covariance34,field.twist.covariance35
1403715888134058000,5342,1403715888134058000,world,odom,452078.0654837672,523959.9031457667,-362220.7034338192,-0.17933299304814598,0.25603726312146935,0.2491788379594938,0.9166212435956399,0.7996488512335251,-0.028022913772989416,0.13325078836961082,-0.016899988531874858,-0.05265638437618957,-0.04392177031401933,-0.028022913772989416,0.8739243564886873,0.044641442030363895,0.026766938387955477,-0.04735590505005152,0.060828766812429894,0.13325078836961082,0.044641442030363895,0.67106827813298,-0.004982071657866034,-0.04301977986958424,-0.014781196555178547,-0.016899988531874858,0.026766938387955477,-0.004982071657866034,0.022537350739518177,-2.0899224319813747e-06,-4.72543291111563e-07,-0.05265638437618957,-0.04735590505005152,-0.04301977986958424,-2.0899224319813747e-06,0.022534980863809288,2.7528489120047763e-07,-0.04392177031401933,0.060828766812429894,-0.014781196555178547,-4.72543291111563e-07,2.7528489120047763e-07,0.022533825620295354,1930.703105451714,4514.06744506229,10329.415643599785,0.0,0.0,0.0,1.1597624298108422,-0.1150096573807616,0.5332273157623939,0.0,0.0,0.0,-0.1150096573807616,1.457347490051686,0.18210415078645212,0.0,0.0,0.0,0.5332273157623939,0.18210415078645212,0.6524787797267985,0.0,0.0,0.0,0.0,0.0,0.0,0.0,0.0,0.0,0.0,0.0,0.0,0.0,0.0,0.0,0.0,0.0,0.0,0.0,0.0,0.0
1403715888184058000,5343,1403715888184058000,world,odom,452174.6070398697,524185.60859817936,-361704.25552198506,-0.17859899459734227,0.2558140649745952,0.24898282219392967,0.9168800998725724,0.88793493183915,-0.034203752065929696,0.16222707649615203,-0.019261090044327717,-0.06006515244405658,-0.05002022129534592,-0.034203752065929696,0.9783726378676103,0.05445435528454807,0.030543413785604545,-0.0539047423029623,0.06939514199890376,0.16222707649615203,0.05445435528454807,0.7316124891817631,-0.0056613533171027295,-0.049100484611446005,-0.01679009971904226,-0.019261090044327717,0.030543413785604545,-0.0056613533171027295,0.0240635355228167,-2.3841252610234643e-06,-5.381681167777221e-07,-0.06006515244405658,-0.0539047423029623,-0.049100484611446005,-2.3841252610234643e-06,0.024060833848628737,3.1361823011627053e-07,-0.05002022129534592,0.06939514199890376,-0.01679009971904226,-5.381681167777221e-07,3.1361823011627053e-07,0.02405951530242095,1930.9629050582917,4514.159408215662,10328.520647406669,0.0,0.0,0.0,1.2848789420737357,-0.13156230878593544,0.6080573691918458,0.0,0.0,0.0,-0.13156230878593544,1.6242838171924405,0.20814822979177167,0.0,0.0,0.0,0.6080573691918458,0.20814822979177167,0.7074738111523244,0.0,0.0,0.0,0.0,0.0,0.0,0.0,0.0,0.0,0.0,0.0,0.0,0.0,0.0,0.0,0.0,0.0,0.0,0.0,0.0,0.0
1403715888234058000,5344,1403715888234058000,world,odom,452271.1615697467,524411.3186956844,-361187.8523568807,-0.17787289714052099,0.25559749197780185,0.24880612448645098,0.9171295802532637,0.9860678794199783,-0.041489152748110124,0.19627519018338455,-0.02186241161708139,-0.06822979289936787,-0.05673144598165372,-0.041489152748110124,1.0954966145599723,0.06601345398953277,0.03470510921353333,-0.061107467816429145,0.07883788690483673,0.19627519018338455,0.06601345398953277,0.7971961880873221,-0.006407566579101333,-0.055807187418106495,-0.01899342427994047,-0.02186241161708139,0.03470510921353333,-0.006407566579101333,0.025639709687158695,-2.7078432366276195e-06,-6.098274922454275e-07,-0.06822979289936787,-0.061107467816429145,-0.055807187418106495,-2.7078432366276195e-06,0.025636644160860526,3.5554601440477256e-07,-0.05673144598165372,0.07883788690483673,-0.01899342427994047,-6.098274922454275e-07,3.5554601440477256e-07,0.025635145488492904,1931.222096932794,4514.25284595579,10327.625810690895,0.0,0.0,0.0,1.422619569435955,-0.14995513659339704,0.6903781248194146,0.0,0.0,0.0,-0.14995513659339704,1.8078642278476862,0.23710646353192572,0.0,0.0,0.0,0.6903781248194146,0.23710646353192572,0.7679550928692713,0.0,0.0,0.0,0.0,0.0,0.0,0.0,0.0,0.0,0.0,0.0,0.0,0.0,0.0,0.0,0.0,0.0,0.0,0.0,0.0,0.0
1403715888284058000,5345,1403715888284058000,world,odom,452367.72951596836,524637.034509963,-360671.4914474605,-0.1771399373411491,0.25535048873120125,0.2486247992084123,0.9173893828261188,1.0951889009382578,-0.05003123840470913,0.2360784207709078,-0.024720703160212697,-0.0772028807526065,-0.0640902311925825,-0.05003123840470913,1.226818457990527,0.07955818827360257,0.03928772550642606,-0.06900083180104577,0.08921329587213245,0.2360784207709078,0.07955818827360257,0.8683196089039239,-0.007223404105963619,-0.0631819811374206,-0.021400529580749762,-0.024720703160212697,0.03928772550642606,-0.007223404105963619,0.027265880157687373,-3.0626463769082715e-06,-6.885519176216997e-07,-0.0772028807526065,-0.06900083180104577,-0.0631819811374206,-3.0626463769082715e-06,0.027262417170771117,4.0168157130859884e-07,-0.0640902311925825,0.08921329587213245,-0.021400529580749762,-6.885519176216997e-07,4.0168157130859884e-07,0.02726072079977119,1931.4813872288285,4514.345583849681,10326.73167087714,0.0,0.0,0.0,1.5734505659226152,-0.17011661444746423,0.7807242733968406,0.0,0.0,0.0,-0.17011661444746423,2.009110010299064,0.26880603152392635,0.0,0.0,0.0,0.7807242733968406,0.26880603152392635,0.8342705127719162,0.0,0.0,0.0,0.0,0.0,0.0,0.0,0.0,0.0,0.0,0.0,0.0,0.0,0.0,0.0,0.0,0.0,0.0,0.0,0.0,0.0
1403715888334058000,5346,1403715888334058000,world,odom,452464.3100008292,524862.7538960346,-360155.1777151771,-0.17637787619566872,0.25512128654842753,0.24843093255627677,0.9176524645462459,1.21655307737427,-0.05999937361371798,0.2823939374292499,-0.027848475156653653,-0.08704098329284207,-0.07213228399239242,-0.05999937361371798,1.3740184751437188,0.09535338248897042,0.04431050302622755,-0.07762073508521264,0.10059031170292618,0.2823939374292499,0.09535338248897042,0.9455388148289833,-0.008112583267299665,-0.07127042908227457,-0.02401922883354866,-0.027848475156653653,0.04431050302622755,-0.008112583267299665,0.028942029533971857,-3.452076410769874e-06,-7.7406495417228e-07,-0.08704098329284207,-0.07762073508521264,-0.07127042908227457,-3.452076410769874e-06,0.028938132395672146,4.519136655058377e-07,-0.07213228399239242,0.10059031170292618,-0.02401922883354866,-7.7406495417228e-07,4.519136655058377e-07,0.02893621828686332,1931.741683184734,4514.438594109516,10325.83758636124,0.0,0.0,0.0,1.738477337592403,-0.19230598118356276,0.8798502629132328,0.0,0.0,0.0,-0.19230598118356276,2.2295717738270553,0.3036115325422157,0.0,0.0,0.0,0.8798502629132328,0.3036115325422157,0.907089278720553,0.0,0.0,0.0,0.0,0.0,0.0,0.0,0.0,0.0,0.0,0.0,0.0,0.0,0.0,0.0,0.0,0.0,0.0,0.0,0.0,0.0
1403715888384058000,5347,1403715888384058000,world,odom,452560.903498554,525088.4779505349,-359638.9086669286,-0.1756380822466628,0.254878362257521,0.24825558804916845,0.917909280659042,1.3515290717804853,-0.07158016184264204,0.3360471068983404,-0.031267043806002585,-0.09778799815983952,-0.08090763391752046,-0.07158016184264204,1.5389277754012218,0.11369067662190241,0.04980258677856364,-0.08702295592877954,0.11302020103327462,0.3360471068983404,0.11369067662190241,1.0294614089323109,-0.009081984686143288,-0.08011467852773412,-0.02686945333375379,-0.031267043806002585,0.04980258677856364,-0.009081984686143288,0.03066816563535566,-3.87663457605048e-06,-8.67262318427125e-07,-0.09778799815983952,-0.08702295592877954,-0.08011467852773412,-3.87663457605048e-06,0.030663795433733442,5.066727571954346e-07,-0.08090763391752046,0.11302020103327462,-0.02686945333375379,-8.67262318427125e-07,5.066727571954346e-07,0.03066164388017078,1932.0016507547978,4514.532414970723,10324.943899321455,0.0,0.0,0.0,1.9184790490825812,-0.21667277516177247,0.9879978653512064,0.0,0.0,0.0,-0.21667277516177247,2.4699600330613083,0.34182399686511217,0.0,0.0,0.0,0.9879978653512064,0.34182399686511217,0.9865451258348261,0.0,0.0,0.0,0.0,0.0,0.0,0.0,0.0,0.0,0.0,0.0,0.0,0.0,0.0,0.0,0.0,0.0,0.0,0.0,0.0,0.0
1403715888434058000,5348,1403715888434058000,world,odom,452657.50999286206,525314.2066979762,-359122.6843138681,-0.17490076100636845,0.25465617258947676,0.24806836386105435,0.9181623192076505,1.5016197856623361,-0.08497764150249684,0.3979385296357958,-0.03498511160096577,-0.10950546756708389,-0.09045504963914326,-0.08497764150249684,1.7235491697610823,0.1348911079057091,0.055788956175305736,-0.09724348474791705,0.12657515491090837,0.3979385296357958,0.1348911079057091,1.1207462496170189,-0.010131043344360829,-0.08976256607335732,-0.02995861991559785,-0.03498511160096577,0.055788956175305736,-0.010131043344360829,0.032444286076382695,-4.339897306662921e-06,-9.67655299091993e-07,-0.10950546756708389,-0.09724348474791705,-0.08976256607335732,-4.339897306662921e-06,0.03243940272978646,5.658286362464648e-07,-0.09045504963914326,0.12657515491090837,-0.02995861991559785,-9.67655299091993e-07,5.658286362464648e-07,0.032436991001807816,1932.2620022044111,4514.625910610487,10324.050134748835,0.0,0.0,0.0,2.1144241231154193,-0.24323241053981082,1.1059213459761894,0.0,0.0,0.0,-0.24323241053981082,2.7318466405325394,0.3834319299724675,0.0,0.0,0.0,1.1059213459761894,0.3834319299724675,1.0731296181547645,0.0,0.0,0.0,0.0,0.0,0.0,0.0,0.0,0.0,0.0,0.0,0.0,0.0,0.0,0.0,0.0,0.0,0.0,0.0,0.0,0.0
1403715888484058000,5349,1403715888484058000,world,odom,452754.12949970487,525539.9401511035,-358606.5046310653,-0.1741384189179082,0.25442056125184,0.24785238068398704,0.9184308283471052,1.6684509556451481,-0.10041503582682432,0.469050424596943,-0.03902195586736226,-0.12225677300599067,-0.10080841874374125,-0.10041503582682432,1.9300587193271823,0.15930315420935653,0.062313059691891444,-0.10831741461042071,0.14132246527847547,0.469050424596943,0.15930315420935653,1.2201158754043107,-0.011262305448898207,-0.10026424351520309,-0.03329311575988607,-0.03902195586736226,0.062313059691891444,-0.011262305448898207,0.034270392182329676,-4.8425979059622205e-06,-1.0768241295843771e-06,-0.12225677300599067,-0.10831741461042071,-0.10026424351520309,-4.8425979059622205e-06,0.03426494777782958,6.299199418447649e-07,-0.10080841874374125,0.14132246527847547,-0.03329311575988607,-1.0768241295843771e-06,6.299199418447649e-07,0.034262254821619195,1932.5225655550478,4514.7207572319085,10323.156459827644,0.0,0.0,0.0,2.327350216621978,-0.27237065092978674,1.2341355160619658,0.0,0.0,0.0,-0.27237065092978674,3.0163644261904468,0.42904033385253654,0.0,0.0,0.0,1.2341355160619658,0.42904033385253654,1.1673980974600422,0.0,0.0,0.0,0.0,0.0,0.0,0.0,0.0,0.0,0.0,0.0,0.0,0.0,0.0,0.0,0.0,0.0,0.0,0.0,0.0,0.0
1403715888534058000,5350,1403715888534058000,world,odom,452850.762522661,525765.6793881223,-358090.36715346435,-0.17334298368844567,0.2542402369298428,0.2476670033609078,0.9186812109638866,1.8537933781483824,-0.118135675516975,0.550457639675106,-0.04340253937805176,-0.13609761624268255,-0.1120129895142493,-0.118135675516975,2.160833131052281,0.18730518323822715,0.06937103075730525,-0.12029701761630757,0.1573418066249439,0.550457639675106,0.18730518323822715,1.328361976341302,-0.012492379898811013,-0.11166893142259501,-0.03688463790719583,-0.04340253937805176,0.06937103075730525,-0.012492379898811013,0.03614648904150685,-5.389509452069058e-06,-1.1947211537444688e-06,-0.13609761624268255,-0.12029701761630757,-0.11166893142259501,-5.389509452069058e-06,0.0361404362050914,6.99252589844302e-07,-0.1120129895142493,0.1573418066249439,-0.03688463790719583,-1.1947211537444688e-06,6.99252589844302e-07,0.0361374365812305,1932.7835370895561,4514.814970895294,10322.263499910028,0.0,0.0,0.0,2.5576272225432026,-0.3039383130004175,1.3731649012120186,0.0,0.0,0.0,-0.3039383130004175,3.3245011730089233,0.4783490045333259,0.0,0.0,0.0,1.3731649012120186,0.4783490045333259,1.2696466572156193,0.0,0.0,0.0,0.0,0.0,0.0,0.0,0.0,0.0,0.0,0.0,0.0,0.0,0.0,0.0,0.0,0.0,0.0,0.0,0.0,0.0
1403715888584058000,5351,1403715888584058000,world,odom,452947.4081266302,525991.4222977454,-357574.27679101756,-0.1726161665304738,0.25397363654833627,0.24746212206355875,0.9189469784130845,2.0595634814432326,-0.1384065722071231,0.6433147961068318,-0.048140392957681535,-0.15107205133228158,-0.1241356181786891,-0.1384065722071231,2.418430648147203,0.21931495270443518,0.07705139992465715,-0.13324988071626476,0.17466158179232588,0.6433147961068318,0.21931495270443518,1.4463334808329493,-0.01380980665859068,-0.12402161200182756,-0.04076705960131789,-0.048140392957681535,0.07705139992465715,-0.01380980665859068,0.03807256087835586,-5.980345048106283e-06,-1.3231139082159156e-06,-0.15107205133228158,-0.13324988071626476,-0.12402161200182756,-5.980345048106283e-06,0.038065844426435645,7.743986495336271e-07,-0.1241356181786891,0.17466158179232588,-0.04076705960131789,-1.3231139082159156e-06,7.743986495336271e-07,0.038062515320559764,1933.0443854076618,4514.910183688502,10321.37039065767,0.0,0.0,0.0,2.8068656255661564,-0.3383257066144728,1.523608173335321,0.0,0.0,0.0,-0.3383257066144728,3.6578245581507245,0.5320645470176911,0.0,0.0,0.0,1.523608173335321,0.5320645470176911,1.3803323051794354,0.0,0.0,0.0,0.0,0.0,0.0,0.0,0.0,0.0,0.0,0.0,0.0,0.0,0.0,0.0,0.0,0.0,0.0,0.0,0.0,0.0
1403715888634058000,5352,1403715888634058000,world,odom,453044.0667917997,526217.1699628619,-357058.23109691445,-0.17187680440559533,0.2537637910722655,0.24729367078901093,0.9191888504739647,2.2878440147758754,-0.16151538344674232,0.7488820115549722,-0.05325995456656546,-0.16725219421331208,-0.13720975459940404,-0.16151538344674232,2.7056397537323074,0.255781201702841,0.08532305436679549,-0.14721398336414085,0.19339116056450592,0.7488820115549722,0.255781201702841,1.574956204908017,-0.015236374357763142,-0.1373782321784413,-0.044937387094337505,-0.05325995456656546,0.08532305436679549,-0.015236374357763142,0.0400486109924286,-6.619463013260984e-06,-1.4616952153179133e-06,-0.16725219421331208,-0.14721398336414085,-0.1373782321784413,-6.619463013260984e-06,0.040041183718616306,8.559010888210025e-07,-0.13720975459940404,0.19339116056450592,-0.044937387094337505,-1.4616952153179133e-06,8.559010888210025e-07,0.040037496408176707,1933.306070717682,4515.00535855046,10320.477124941834,0.0,0.0,0.0,3.075952776975968,-0.37557356949024745,1.6863814223681517,0.0,0.0,0.0,-0.37557356949024745,4.018074095678939,0.5901420715726192,0.0,0.0,0.0,1.6863814223681517,0.5901420715726192,1.5001684863646878,0.0,0.0,0.0,0.0,0.0,0.0,0.0,0.0,0.0,0.0,0.0,0.0,0.0,0.0,0.0,0.0,0.0,0.0,0.0,0.0,0.0
1403715888684058000,5353,1403715888684058000,world,odom,453140.7385212612,526442.9224187525,-356542.2300550312,-0.1711425331599582,0.25352867593341644,0.24706850157631743,0.9194512490349203,2.540872658731237,-0.18777713676881685,0.868512959511555,-0.058758972056817425,-0.18471277024817334,-0.15127773699525518,-0.18777713676881685,3.025453223884379,0.29719479656354497,0.09427528936007702,-0.16222023040155195,0.21359342455637467,0.868512959511555,0.29719479656354497,1.7152287690028571,-0.016750548266962324,-0.15179601638319667,-0.049406937898035505,-0.058758972056817425,0.09427528936007702,-0.016750548266962324,0.042074643372800334,-7.306160200413603e-06,-1.6106427543713532e-06,-0.18471277024817334,-0.16222023040155195,-0.15179601638319667,-7.306160200413603e-06,0.04206644615351187,9.431510903943992e-07,-0.15127773699525518,0.21359342455637467,-0.049406937898035505,-1.6106427543713532e-06,9.431510903943992e-07,0.04206237549837123,1933.5670244298622,4515.101537870636,10319.584290730347,0.0,0.0,0.0,3.365694816070029,-0.415944211479478,1.8614988362759586,0.0,0.0,0.0,-0.415944211479478,4.405614151248313,0.653121764942457,0.0,0.0,0.0,1.8614988362759586,0.653121764942457,1.629144758629833,0.0,0.0,0.0,0.0,0.0,0.0,0.0,0.0,0.0,0.0,0.0,0.0,0.0,0.0,0.0,0.0,0.0,0.0,0.0,0.0,0.0
1403715888734058000,5354,1403715888734058000,world,odom,453237.42329796875,526668.679680666,-356026.27363361494,-0.17036125003999578,0.2533164233744637,0.24689674095299652,0.9197009478305265,2.821048821742132,-0.21752887371519164,1.0036587441200373,-0.06469800660758585,-0.20351298839798015,-0.16637831632281108,-0.21752887371519164,3.381079594236342,0.3440812743977856,0.10389346106114387,-0.1783287948663564,0.2353565332498978,1.0036587441200373,0.3440812743977856,1.8682199535585868,-0.018392986579075225,-0.16732813011330133,-0.05417950327135175,-0.06469800660758585,0.10389346106114387,-0.018392986579075225,0.044150651925790346,-8.046320079377357e-06,-1.7702190964778992e-06,-0.20351298839798015,-0.1783287948663564,-0.16732813011330133,-8.046320079377357e-06,0.04414163023989122,1.0369332125703458e-06,-0.16637831632281108,0.2353565332498978,-0.05417950327135175,-1.7702190964778992e-06,1.0369332125703458e-06,0.04413714482681535,1933.8278666560948,4515.197766849084,10318.692083402599,0.0,0.0,0.0,3.6768037912109075,-0.4594493639556716,2.0497177481103277,0.0,0.0,0.0,-0.4594493639556716,4.821880092954263,0.7209305256325269,0.0,0.0,0.0,2.0497177481103277,0.7209305256325269,1.7678376511465936,0.0,0.0,0.0,0.0,0.0,0.0,0.0,0.0,0.0,0.0,0.0,0.0,0.0,0.0,0.0,0.0,0.0,0.0,0.0,0.0,0.0
1403715888784058000,5355,1403715888784058000,world,odom,453334.1215971325,526894.4428513891,-355510.35936934827,-0.1696035507553317,0.2530755088843268,0.24667118147154865,0.9199677986786023,3.1309679347791524,-0.251138306533808,1.1558927577647713,-0.07105255912906214,-0.22372310523974093,-0.18257530794925378,-0.251138306533808,3.7759930814234455,0.39701246411229385,0.11426724671604441,-0.195583947595488,0.2587402103186378,1.1558927577647713,0.39701246411229385,2.0350918978472534,-0.020128023109727014,-0.18403205375988885,-0.059280888850372825,-0.07105255912906214,0.11426724671604441,-0.020128023109727014,0.04627664875406482,-8.84131364550892e-06,-1.942730561159301e-06,-0.22372310523974093,-0.195583947595488,-0.18403205375988885,-8.84131364550892e-06,0.04626673551622201,1.137977958130944e-06,-0.18257530794925378,0.2587402103186378,-0.059280888850372825,-1.942730561159301e-06,1.137977958130944e-06,0.0462618063658681,1934.0895801982076,4515.294806368605,10317.799889032041,0.0,0.0,0.0,4.010890985447093,-0.5065306162195446,2.2522030427766664,0.0,0.0,0.0,-0.5065306162195446,5.2691962259215375,0.7941633276994168,0.0,0.0,0.0,2.2522030427766664,0.7941633276994168,1.9173553576077664,0.0,0.0,0.0,0.0,0.0,0.0,0.0,0.0,0.0,0.0,0.0,0.0,0.0,0.0,0.0,0.0,0.0,0.0,0.0,0.0,0.0
1403715888834058000,5356,1403715888834058000,world,odom,453430.8325303818,527120.2098090098,-354994.4921546524,-0.16885239498650095,0.25282948477453027,0.24648517894522695,0.9202234385714744,3.4733973388911172,-0.28900434315519896,1.3269045826935189,-0.07788242012224005,-0.2453940834860342,-0.19992443516966685,-0.28900434315519896,4.213910946412018,0.4566041742237308,0.1253924184021692,-0.21406392667438373,0.28382194371339486,1.3269045826935189,0.4566041742237308,2.217100666094547,-0.021993779501649956,-0.2019622849931533,-0.06472843460016092,-0.07788242012224005,0.1253924184021692,-0.021993779501649956,0.048452609659146516,-9.694428438948573e-06,-2.1279793215766817e-06,-0.2453940834860342,-0.21406392667438373,-0.2019622849931533,-9.694428438948573e-06,0.04844174300898585,1.2466695516811196e-06,-0.19992443516966685,0.28382194371339486,-0.06472843460016092,-2.1279793215766817e-06,1.2466695516811196e-06,0.04843633690484257,1934.3511827569394,4515.39238888076,10316.908512065338,0.0,0.0,0.0,4.368344564318921,-0.5572329787036743,2.469050250567854,0.0,0.0,0.0,-0.5572329787036743,5.747892635140056,0.8729356910210003,0.0,0.0,0.0,2.469050250567854,0.8729356910210003,2.0777128419858433,0.0,0.0,0.0,0.0,0.0,0.0,0.0,0.0,0.0,0.0,0.0,0.0,0.0,0.0,0.0,0.0,0.0,0.0,0.0,0.0,0.0
1403715888884058000,5357,1403715888884058000,world,odom,453527.556559195,527345.9816664581,-354478.66948936094,-0.1680896043401206,0.2525839067201309,0.24628935290697737,0.9204829219618582,3.8512970526308257,-0.3315566246775234,1.5184955018664525,-0.08518771364230909,-0.2686134937692703,-0.21846268076969166,-0.3315566246775234,4.698799977461663,0.52352108618404,0.13731880219363957,-0.23379389883908613,0.31069731883010065,1.5184955018664525,0.52352108618404,2.415586439477908,-0.023978417244663396,-0.22118469066942698,-0.07052248134674913,-0.08518771364230909,0.13731880219363957,-0.023978417244663396,0.05067854230778732,-1.0609448338452097e-05,-2.3270680578920466e-06,-0.2686134937692703,-0.23379389883908613,-0.22118469066942698,-1.0609448338452097e-05,0.05066665692709675,1.3636960324133745e-06,-0.21846268076969166,0.31069731883010065,-0.07052248134674913,-2.3270680578920466e-06,1.3636960324133745e-06,0.050660738413198556,1934.613647346414,4515.490469969773,10316.017444218076,0.0,0.0,0.0,4.750635262586275,-0.6118382224533689,2.7014940625371464,0.0,0.0,0.0,-0.6118382224533689,6.260378890885012,0.9575638126644133,0.0,0.0,0.0,2.7014940625371464,0.9575638126644133,2.24999133088217,0.0,0.0,0.0,0.0,0.0,0.0,0.0,0.0,0.0,0.0,0.0,0.0,0.0,0.0,0.0,0.0,0.0,0.0,0.0,0.0,0.0
1403715888934058000,5358,1403715888934058000,world,odom,453624.2936983674,527571.7584445763,-353962.8914232797,-0.16732757476738425,0.25236342797536176,0.24610163006559485,0.9207324098901086,4.267891423861582,-0.37925479368328396,1.732617450448198,-0.09299010302374193,-0.29344820865305915,-0.23825391485782388,-0.37925479368328396,5.234970049197364,0.5984789878941186,0.15005986608035599,-0.25484119857009063,0.3394545533097269,1.732617450448198,0.5984789878941186,2.6319888344553175,-0.026091741100287443,-0.241758663052975,-0.07668205457112183,-0.09299010302374193,0.15005986608035599,-0.026091741100287443,0.05295444740508963,-1.1588362479938851e-05,-2.53753637714344e-06,-0.29344820865305915,-0.25484119857009063,-0.241758663052975,-1.1588362479938851e-05,0.05294147225110358,1.4874197023569908e-06,-0.23825391485782388,0.3394545533097269,-0.07668205457112183,-2.53753637714344e-06,1.4874197023569908e-06,0.052935004883431405,1934.8753658768876,4515.589347483871,10315.124999710693,0.0,0.0,0.0,5.16058080936261,-0.6704622499241968,2.950030418982368,0.0,0.0,0.0,-0.6704622499241968,6.808859078897761,1.0486710877383496,0.0,0.0,0.0,2.950030418982368,1.0486710877383496,2.4338790786897873,0.0,0.0,0.0,0.0,0.0,0.0,0.0,0.0,0.0,0.0,0.0,0.0,0.0,0.0,0.0,0.0,0.0,0.0,0.0,0.0,0.0
1403715888984058000,5359,1403715888984058000,world,odom,453721.0439201782,527797.5401535301,-353447.1579368176,-0.16657192381386796,0.25212587098585554,0.24592267150554373,0.9209822902836663,4.726576572836977,-0.43258590360346016,1.9713259899043252,-0.1013252414511252,-0.3199665994506788,-0.25935248693858715,-0.43258590360346016,5.8269586896412795,0.6822361304329162,0.16368435724340968,-0.27726754343104243,0.37015946435190217,1.9713259899043252,0.6822361304329162,2.867825830795482,-0.028340209618852922,-0.2637435885299019,-0.08322476388031277,-0.1013252414511252,0.16368435724340968,-0.028340209618852922,0.055280322690768,-1.2633108678765358e-05,-2.7622744502036497e-06,-0.3199665994506788,-0.27726754343104243,-0.2637435885299019,-1.2633108678765358e-05,0.05526618710658788,1.6196750846607655e-06,-0.25935248693858715,0.37015946435190217,-0.08322476388031277,-2.7622744502036497e-06,1.6196750846607655e-06,0.055259133363896484,1935.1376022433449,4515.6878773380095,10314.23400346761,0.0,0.0,0.0,5.596407582006204,-0.7330953368093693,3.2151107472332363,0.0,0.0,0.0,-0.7330953368093693,7.3929773871011015,1.145702814691128,0.0,0.0,0.0,3.2151107472332363,1.145702814691128,2.6304430799429337,0.0,0.0,0.0,0.0,0.0,0.0,0.0,0.0,0.0,0.0,0.0,0.0,0.0,0.0,0.0,0.0,0.0,0.0,0.0,0.0,0.0
1403715889034058000,5360,1403715889034058000,world,odom,453817.8077346351,528023.3278797099,-352931.46654061915,-0.1658296184330815,0.2518836443008634,0.24570320556803615,0.9212410662566266,5.230966212416017,-0.49207886733941336,2.236843192254998,-0.11017495688495416,-0.34825801262794776,-0.281810421352378,-0.49207886733941336,6.479637482022467,0.7756031406044661,0.1782452170804295,-0.30110641150566964,0.4029115182602254,2.236843192254998,0.7756031406044661,3.124758864917176,-0.03070058437227896,-0.2872097136130335,-0.09016192348845045,-0.11017495688495416,0.1782452170804295,-0.03070058437227896,0.057656180003729546,-1.374618956143612e-05,-3.002484919715288e-06,-0.34825801262794776,-0.30110641150566964,-0.2872097136130335,-1.374618956143612e-05,0.05764080367825783,1.7607873969161802e-06,-0.281810421352378,0.4029115182602254,-0.09016192348845045,-3.002484919715288e-06,1.7607873969161802e-06,0.057633126473910265,1935.4003723072199,4515.786680188074,10313.343468718811,0.0,0.0,0.0,6.060289254528908,-0.8001264294309163,3.497785118121213,0.0,0.0,0.0,-0.8001264294309163,8.01523530060504,1.2493398480303908,0.0,0.0,0.0,3.497785118121213,1.2493398480303908,2.840433602669451,0.0,0.0,0.0,0.0,0.0,0.0,0.0,0.0,0.0,0.0,0.0,0.0,0.0,0.0,0.0,0.0,0.0,0.0,0.0,0.0,0.0
1403715889084058000,5361,1403715889084058000,world,odom,453914.584245928,528249.1194773628,-352415.8221351323,-0.16508370064719172,0.2516397623468886,0.24551147007333704,0.9214927671170615,5.784909078006252,-0.5582961044250184,2.5315302286297903,-0.119613902589495,-0.3783823017961483,-0.3056831943864102,-0.5582961044250184,7.198187077013459,0.8794441383842648,0.19374883003623788,-0.3264414240691922,0.4377955230427702,2.5315302286297903,0.8794441383842648,3.404548646601912,-0.033218482768223714,-0.3122185508327209,-0.09750960273159281,-0.119613902589495,0.19374883003623788,-0.033218482768223714,0.06008199151346894,-1.4931952768883486e-05,-3.259251676335084e-06,-0.3783823017961483,-0.3264414240691922,-0.3122185508327209,-1.4931952768883486e-05,0.06006529938028188,1.9119588949195867e-06,-0.3056831943864102,0.4377955230427702,-0.09750960273159281,-3.259251676335084e-06,1.9119588949195867e-06,0.06005695676868162,1935.6635484173923,4515.886149880382,10312.452902665358,0.0,0.0,0.0,6.554073977390386,-0.8718995287267017,3.7989398210240717,0.0,0.0,0.0,-0.8718995287267017,8.677743168472137,1.360180724353826,0.0,0.0,0.0,3.7989398210240717,1.360180724353826,3.064495123759806,0.0,0.0,0.0,0.0,0.0,0.0,0.0,0.0,0.0,0.0,0.0,0.0,0.0,0.0,0.0,0.0,0.0,0.0,0.0,0.0,0.0
1403715889134058000,5362,1403715889134058000,world,odom,454011.373886786,528474.9160756993,-351900.22226571053,-0.16433424461155458,0.25138093654208893,0.24532054453448354,0.9217481821085824,6.392538480840312,-0.6318471299001387,2.8578845289329653,-0.12965298409114862,-0.4104278409252905,-0.3310232063055457,-0.6318471299001387,7.988115978919171,0.994707259222266,0.21026636876795657,-0.3533167598860853,0.47490015859788015,2.8578845289329653,0.994707259222266,3.709050714889651,-0.03588280282287362,-0.3388395965013665,-0.10527629130163575,-0.12965298409114862,0.21026636876795657,-0.03588280282287362,0.06255776634883542,-1.619435782759777e-05,-3.5329897428052913e-06,-0.4104278409252905,-0.3533167598860853,-0.3388395965013665,-1.619435782759777e-05,0.06253967892240213,2.073428853719516e-06,-0.3310232063055457,0.47490015859788015,-0.10527629130163575,-3.5329897428052913e-06,2.073428853719516e-06,0.06253062662127933,1935.9261127869427,4515.986243292992,10311.561675424027,0.0,0.0,0.0,7.0798206598589655,-0.9484784906144599,4.11900730033375,0.0,0.0,0.0,-0.9484784906144599,9.382211993674847,1.478634142578994,0.0,0.0,0.0,4.11900730033375,1.478634142578994,3.3024546512018156,0.0,0.0,0.0,0.0,0.0,0.0,0.0,0.0,0.0,0.0,0.0,0.0,0.0,0.0,0.0,0.0,0.0,0.0,0.0,0.0,0.0
1403715889184058000,5363,1403715889184058000,world,odom,454108.1766755211,528700.7176730894,-351384.6669423097,-0.16358284539882884,0.25118234791488375,0.24512906356884914,0.9219868887251316,7.058239466691538,-0.7133705470411662,3.2185852981018668,-0.140280018648544,-0.444482354595274,-0.3578951557484461,-0.7133705470411662,8.85531209875708,1.1223776718503462,0.2277564178084155,-0.3817845442220925,0.5143632303631516,3.2185852981018668,1.1223776718503462,4.04025636141851,-0.03869454758990594,-0.3671437096658012,-0.11347179143677388,-0.140280018648544,0.2277564178084155,-0.03869454758990594,0.0650835048431815,-1.7536095735207335e-05,-3.819352240399246e-06,-0.444482354595274,-0.3817845442220925,-0.3671437096658012,-1.7536095735207335e-05,0.06506393788835588,2.2425495012663982e-06,-0.3578951557484461,0.5143632303631516,-0.11347179143677388,-3.819352240399246e-06,2.2425495012663982e-06,0.06505412928291332,1936.1887217071976,4516.086479612343,10310.67150710838,0.0,0.0,0.0,7.636518149954124,-1.029993984315175,4.4584414862834985,0.0,0.0,0.0,-1.029993984315175,10.128660620977922,1.6045040292173853,0.0,0.0,0.0,4.4584414862834985,1.6045040292173853,3.555259855931948,0.0,0.0,0.0,0.0,0.0,0.0,0.0,0.0,0.0,0.0,0.0,0.0,0.0,0.0,0.0,0.0,0.0,0.0,0.0,0.0,0.0
1403715889234058000,5364,1403715889234058000,world,odom,454204.9926040136,528926.5243061769,-350869.1561070072,-0.16284665098431697,0.25091305856750173,0.2449288020722282,0.922243724412889,7.786598297190958,-0.8035574184900295,3.6164381972306936,-0.15156646903363336,-0.48060891507013437,-0.38635892565754615,-0.8035574184900295,9.80592843905509,1.2635170191590344,0.24641626889655294,-0.41192436785020864,0.5561935428553895,3.6164381972306936,1.2635170191590344,4.4002728432787235,-0.0416538461399874,-0.3971954280926665,-0.1221289156610085,-0.15156646903363336,0.24641626889655294,-0.0416538461399874,0.06765920695755061,-1.8956614685358006e-05,-4.127721702106947e-06,-0.48060891507013437,-0.41192436785020864,-0.3971954280926665,-1.8956614685358006e-05,0.06763807013724932,2.4244550642361052e-06,-0.38635892565754615,0.5561935428553895,-0.1221289156610085,-4.127721702106947e-06,2.4244550642361052e-06,0.06762746299117102,1936.4520696132186,4516.187260788697,10309.781308830221,0.0,0.0,0.0,8.226939787186694,-1.1169492786748751,4.8189669665027015,0.0,0.0,0.0,-1.1169492786748751,10.920809472617378,1.7385414553696437,0.0,0.0,0.0,4.8189669665027015,1.7385414553696437,3.8242833498029616,0.0,0.0,0.0,0.0,0.0,0.0,0.0,0.0,0.0,0.0,0.0,0.0,0.0,0.0,0.0,0.0,0.0,0.0,0.0,0.0,0.0
1403715889284058000,5365,1403715889284058000,world,odom,454301.82214148436,529152.3370411926,-350353.6873315237,-0.16208974271778276,0.250667800079972,0.24473431063070028,0.9224953585297143,8.582567887290654,-0.9031269169440834,4.0544617380524715,-0.16352119409521018,-0.5189182031484116,-0.41645125024539925,-0.9031269169440834,10.846605215433708,1.4192377900167628,0.2661766608831275,-0.4437663430480296,0.6005650224935977,4.0544617380524715,1.4192377900167628,4.791337809259127,-0.0447811662395364,-0.4290738905058787,-0.13123138864368583,-0.16352119409521018,0.2661766608831275,-0.0447811662395364,0.07028487901511926,-2.0463823177103756e-05,-4.452621112530453e-06,-0.5189182031484116,-0.4437663430480296,-0.4290738905058787,-2.0463823177103756e-05,0.07026208632751332,2.616663599027873e-06,-0.41645125024539925,0.6005650224935977,-0.13123138864368583,-4.452621112530453e-06,2.616663599027873e-06,0.07025062890784035,1936.7149878130665,4516.287730856263,10308.891789911448,0.0,0.0,0.0,8.851044538404787,-1.2089896244751723,5.200260341695431,0.0,0.0,0.0,-1.2089896244751723,11.758335189726287,1.8803540581341842,0.0,0.0,0.0,5.200260341695431,1.8803540581341842,4.108859061392882,0.0,0.0,0.0,0.0,0.0,0.0,0.0,0.0,0.0,0.0,0.0,0.0,0.0,0.0,0.0,0.0,0.0,0.0,0.0,0.0,0.0
1403715889334058000,5366,1403715889334058000,world,odom,454398.664383047,529378.1537616879,-349838.2655027684,-0.16131857029898908,0.2504392106290807,0.24452568892938326,0.9227479114632464,9.451323150622072,-1.0128640952542864,4.535832549724742,-0.17614706886749182,-0.5595035328217495,-0.4482298478359463,-1.0128640952542864,11.984297010907984,1.5907421076731154,0.28710039644897445,-0.47735655812905103,0.6475793621707349,4.535832549724742,1.5907421076731154,5.21584250448121,-0.0480629942994302,-0.46285618325740263,-0.14079040373633553,-0.17614706886749182,0.28710039644897445,-0.0480629942994302,0.07296049686426186,-2.2060591334788694e-05,-4.7963672160945865e-06,-0.5595035328217495,-0.47735655812905103,-0.46285618325740263,-2.2060591334788694e-05,0.07293594858482406,2.8199563580121545e-06,-0.4482298478359463,0.6475793621707349,-0.14079040373633553,-4.7963672160945865e-06,2.8199563580121545e-06,0.07292359057506616,1936.9786928743551,4516.389763735521,10308.001117626698,0.0,0.0,0.0,9.513647615064817,-1.3074643253540916,5.604952740734847,0.0,0.0,0.0,-1.3074643253540916,12.64698690534499,2.0320234976531957,0.0,0.0,0.0,5.604952740734847,2.0320234976531957,4.411442764954642,0.0,0.0,0.0,0.0,0.0,0.0,0.0,0.0,0.0,0.0,0.0,0.0,0.0,0.0,0.0,0.0,0.0,0.0,0.0,0.0,0.0
1403715889384058000,5367,1403715889384058000,world,odom,454495.5198099508,529603.9755936316,-349322.8881968787,-0.16055921956105743,0.25019506638231603,0.24432115089804038,0.9230007264329482,10.398443788707043,-1.133611630124547,5.063949609532206,-0.18949675177590908,-0.6024228781141039,-0.481789145348392,-1.133611630124547,13.226467720007536,1.7793292776918261,0.3092656659636299,-0.512805885649742,0.6972929985679762,5.063949609532206,1.7793292776918261,5.676334227759364,-0.05151327239471007,-0.49860944760997417,-0.1508488742462383,-0.18949675177590908,0.3092656659636299,-0.05151327239471007,0.0756860732236069,-2.374800999026433e-05,-5.1600207223178704e-06,-0.6024228781141039,-0.512805885649742,-0.49860944760997417,-2.374800999026433e-05,0.07565966492485399,3.034750352601948e-06,-0.481789145348392,0.6972929985679762,-0.1508488742462383,-5.1600207223178704e-06,3.034750352601948e-06,0.07564635647755721,1937.2424317235857,4516.492336070216,10307.110794476981,0.0,0.0,0.0,10.213555912215526,-1.4120346343697117,6.032630669491628,0.0,0.0,0.0,-1.4120346343697117,13.585674585179529,2.1929462329714466,0.0,0.0,0.0,6.032630669491628,2.1929462329714466,4.731678372808646,0.0,0.0,0.0,0.0,0.0,0.0,0.0,0.0,0.0,0.0,0.0,0.0,0.0,0.0,0.0,0.0,0.0,0.0,0.0,0.0,0.0
1403715889434058000,5368,1403715889434058000,world,odom,454592.3884303746,529829.8025666719,-348807.5553606862,-0.15983151586577876,0.24997202985924052,0.244141217139091,0.9232350388270267,11.4296868524401,-1.2662553652004838,5.642355368572749,-0.20358761353309607,-0.6477324196636397,-0.5172322427947408,-1.2662553652004838,14.580860522036291,1.9863510076447606,0.3326339978610874,-0.5502218900247111,0.7498119317935723,5.642355368572749,1.9863510076447606,6.175493439518412,-0.05515026402174736,-0.5364019649988572,-0.1614459372320184,-0.20358761353309607,0.3326339978610874,-0.05515026402174736,0.07846160240702549,-2.553001398396957e-05,-5.54488142950459e-06,-0.6477324196636397,-0.5502218900247111,-0.5364019649988572,-2.553001398396957e-05,0.07843323786120478,3.2625243091294665e-06,-0.5172322427947408,0.7498119317935723,-0.1614459372320184,-5.54488142950459e-06,3.2625243091294665e-06,0.0784189239337373,1937.5065766608618,4516.5948431914685,10306.222204692556,0.0,0.0,0.0,10.949424537320013,-1.5227109195728272,6.4836754557824845,0.0,0.0,0.0,-1.5227109195728272,14.574195537919538,2.362698105137307,0.0,0.0,0.0,6.4836754557824845,2.362698105137307,5.0704356048801404,0.0,0.0,0.0,0.0,0.0,0.0,0.0,0.0,0.0,0.0,0.0,0.0,0.0,0.0,0.0,0.0,0.0,0.0,0.0,0.0,0.0
1403715889484058000,5369,1403715889484058000,world,odom,454689.2702598569,530055.6346500954,-348292.26696568436,-0.1590785123334689,0.2497564961955239,0.2439646803646472,0.9234700613752898,12.551133688570234,-1.4117029965320724,6.274807343831097,-0.2184608742384032,-0.6955831569843418,-0.5545381962722115,-1.4117029965320724,16.055688134528218,2.213191145223062,0.3572987268440886,-0.5895796730783944,0.8052863775152261,6.274807343831097,2.213191145223062,6.716141151989234,-0.05897990361038359,-0.5763293805540329,-0.1725359405265578,-0.2184608742384032,0.3572987268440886,-0.05897990361038359,0.0812870855172659,-2.7409592111499237e-05,-5.944504700039074e-06,-0.6955831569843418,-0.5895796730783944,-0.5763293805540329,-2.7409592111499237e-05,0.08125666187466815,3.4992760105797383e-06,-0.5545381962722115,0.8052863775152261,-0.1725359405265578,-5.944504700039074e-06,3.4992760105797383e-06,0.0812412847607734,1937.7709859212462,4516.697187570726,10305.333124365938,0.0,0.0,0.0,11.726308696460423,-1.6396206909580715,6.960076748208137,0.0,0.0,0.0,-1.6396206909580715,15.61804729514138,2.5419522524836777,0.0,0.0,0.0,6.960076748208137,2.5419522524836777,5.428234641770236,0.0,0.0,0.0,0.0,0.0,0.0,0.0,0.0,0.0,0.0,0.0,0.0,0.0,0.0,0.0,0.0,0.0,0.0,0.0,0.0,0.0
1403715889534058000,5370,1403715889534058000,world,odom,454786.1657879331,530281.472939093,-347777.02056255203,-0.1583160120766855,0.24954750338978315,0.24379330244634068,0.923702825347183,13.76928086021424,-1.570943727339225,6.965305166687559,-0.23414168338149816,-0.7460557551801295,-0.593789975957482,-1.570943727339225,17.659695442525,2.4613599463691704,0.3833027721495613,-0.630964763849297,0.8638149226178952,6.965305166687559,2.4613599463691704,7.301293188024067,-0.06300766010327435,-0.618468899162455,-0.1841476486916488,-0.23414168338149816,0.3833027721495613,-0.06300766010327435,0.08416253608653324,-2.9388661528192912e-05,-6.362768843658751e-06,-0.7460557551801295,-0.630964763849297,-0.618468899162455,-2.9388661528192912e-05,0.08412994279364956,3.746992387235158e-06,-0.593789975957482,0.8638149226178952,-0.1841476486916488,-6.362768843658751e-06,3.746992387235158e-06,0.08411344597485342,1938.035341559868,4516.800061807029,10304.444420802842,0.0,0.0,0.0,12.544406539597565,-1.7633524498271065,7.46193773861896,0.0,0.0,0.0,-1.7633524498271065,16.71723390959099,2.7315241115097466,0.0,0.0,0.0,7.46193773861896,2.7315241115097466,5.805690423920249,0.0,0.0,0.0,0.0,0.0,0.0,0.0,0.0,0.0,0.0,0.0,0.0,0.0,0.0,0.0,0.0,0.0,0.0,0.0,0.0,0.0
1403715889584058000,5371,1403715889584058000,world,odom,454883.0740599712,530507.3153178673,-347261.82106308476,-0.15755338215592243,0.24930705176699286,0.24358820342689186,0.9239522243394076,15.090951736887694,-1.7450210985420997,7.717996334676356,-0.2506202675982937,-0.7992635189653454,-0.6350447131083308,-1.7450210985420997,19.401990048231344,2.7324679382462813,0.4108184437108835,-0.6744102560081454,0.9254745901857194,7.717996334676356,2.7324679382462813,7.934062733853911,-0.06718554772407666,-0.6629046849123525,-0.19629381929436396,-0.2506202675982937,0.4108184437108835,-0.06718554772407666,0.08708792861505811,-3.1470002005478596e-05,-6.802892548933055e-06,-0.7992635189653454,-0.6744102560081454,-0.6629046849123525,-3.1470002005478596e-05,0.0870530368956247,4.006723551336842e-06,-0.6350447131083308,0.9254745901857194,-0.19629381929436396,-6.802892548933055e-06,4.006723551336842e-06,0.08703536668937256,1938.2997785855098,4516.903728573807,10303.555179490402,0.0,0.0,0.0,13.407148150152953,-1.894386879350522,7.990889778016415,0.0,0.0,0.0,-1.894386879350522,17.875709530289217,2.9323165465872183,0.0,0.0,0.0,7.990889778016415,2.9323165465872183,6.203836779122666,0.0,0.0,0.0,0.0,0.0,0.0,0.0,0.0,0.0,0.0,0.0,0.0,0.0,0.0,0.0,0.0,0.0,0.0,0.0,0.0,0.0
1403715889634058000,5372,1403715889634058000,world,odom,454979.99556762096,530733.1629204873,-346746.6659886906,-0.15678181384472337,0.24909604294170806,0.24339026449396706,0.9241925142457591,16.523317700546237,-1.9350708131566319,8.537303315465099,-0.2679396269559373,-0.8552880961981644,-0.6783813916094461,-1.9350708131566319,21.29221618552924,3.0282403151826784,0.4397281726536133,-0.7200067585147174,0.9904350941730686,8.537303315465099,3.0282403151826784,8.617826253712684,-0.07156517919646699,-0.7097201898479395,-0.20898166318662031,-0.2679396269559373,0.4397281726536133,-0.07156517919646699,0.09006326780017374,-3.3662973411906104e-05,-7.263427584600017e-06,-0.8552880961981644,-0.7200067585147174,-0.7097201898479395,-3.3662973411906104e-05,0.09002595439621529,4.2785139454646084e-06,-0.6783813916094461,0.9904350941730686,-0.20898166318662031,-7.263427584600017e-06,4.2785139454646084e-06,0.09000704705282553,1938.5641838721826,4517.009248325991,10302.667254712842,0.0,0.0,0.0,14.312814965986668,-2.033770976452945,8.546491080369915,0.0,0.0,0.0,-2.033770976452945,19.09147389298825,3.1454995361251523,0.0,0.0,0.0,8.546491080369915,3.1454995361251523,6.6238172971393885,0.0,0.0,0.0,0.0,0.0,0.0,0.0,0.0,0.0,0.0,0.0,0.0,0.0,0.0,0.0,0.0,0.0,0.0,0.0,0.0,0.0
1403715889684058000,5373,1403715889684058000,world,odom,455076.9302974392,530959.0157611694,-346231.55533296824,-0.15603799794956774,0.24886467402794576,0.24321315437907035,0.9244273247550818,18.073924083701822,-2.142252947742736,9.427841190915732,-0.28617511418919994,-0.9141629801431657,-0.7239307213079048,-2.142252947742736,23.340482354014558,3.350456730543679,0.4701644357006158,-0.7679159055653246,1.0587053742867414,9.427841190915732,3.350456730543679,9.356062410057143,-0.07616285351601573,-0.7589783850828137,-0.2222885708178726,-0.28617511418919994,0.4701644357006158,-0.07616285351601573,0.09308855276901724,-3.596680135790072e-05,-7.749460151392104e-06,-0.9141629801431657,-0.7679159055653246,-0.7589783850828137,-3.596680135790072e-05,0.09304869618895235,4.565402254799875e-06,-0.7239307213079048,1.0587053742867414,-0.2222885708178726,-7.749460151392104e-06,4.565402254799875e-06,0.09302848952048816,1938.828651607155,4517.112725061041,10301.778774902528,0.0,0.0,0.0,15.26467778946993,-2.179054544598864,9.131033322129658,0.0,0.0,0.0,-2.179054544598864,20.370571280888363,3.3677339614905724,0.0,0.0,0.0,9.131033322129658,3.3677339614905724,7.064549869625045,0.0,0.0,0.0,0.0,0.0,0.0,0.0,0.0,0.0,0.0,0.0,0.0,0.0,0.0,0.0,0.0,0.0,0.0,0.0,0.0,0.0
1403715889734058000,5374,1403715889734058000,world,odom,455173.8782689419,531184.8737288566,-345716.48909413343,-0.15500524953383193,0.24869595379403237,0.2429487538049772,0.9247159554198465,19.750632725046497,-2.367701220046026,10.394501977928318,-0.30532160195146874,-0.9765328862507916,-0.7710813852966867,-2.367701220046026,25.557470018325187,3.7008406453307967,0.5022175689206212,-0.8174095529979455,1.1309629405482946,10.394501977928318,3.7008406453307967,10.152412786423836,-0.08095847246032763,-0.8109255370569517,-0.23567770111662756,-0.30532160195146874,0.5022175689206212,-0.08095847246032763,0.0961637869698249,-3.838731978532139e-05,-8.228005997732445e-06,-0.9765328862507916,-0.8174095529979455,-0.8109255370569517,-3.838731978532139e-05,0.09612126585750165,4.848304189103304e-06,-0.7710813852966867,1.1309629405482946,-0.23567770111662756,-8.228005997732445e-06,4.848304189103304e-06,0.09609968417241824,1939.0975999573034,4517.211248375827,10300.891832125142,0.0,0.0,0.0,16.25750464132718,-2.3293846731394514,9.749187915857272,0.0,0.0,0.0,-2.3293846731394514,21.71716040876207,3.595086514459785,0.0,0.0,0.0,9.749187915857272,3.595086514459785,7.531888431614782,0.0,0.0,0.0,0.0,0.0,0.0,0.0,0.0,0.0,0.0,0.0,0.0,0.0,0.0,0.0,0.0,0.0,0.0,0.0,0.0,0.0
1403715889784058000,5375,1403715889784058000,world,odom,455270.8398614902,531410.7381596497,-345201.4647888115,-0.154303258681146,0.2484029754881389,0.2428680674842996,0.924933277553284,21.561871389602764,-2.6128740762502316,11.442278524086111,-0.3256544382412746,-1.0413678079310589,-0.8212438479188509,-2.6128740762502316,27.954171976755088,4.081657778274679,0.5358591767378764,-0.8702164691418197,1.2061536411972331,11.442278524086111,4.081657778274679,11.010743517441753,-0.08612145928360604,-0.8653121040253785,-0.25026185009293117,-0.3256544382412746,0.5358591767378764,-0.08612145928360604,0.09928895242164791,-4.0930399202461516e-05,-8.769437752526922e-06,-1.0413678079310589,-0.8702164691418197,-0.8653121040253785,-4.0930399202461516e-05,0.09924368349432632,5.171049490022522e-06,-0.8212438479188509,1.2061536411972331,-0.25026185009293117,-8.769437752526922e-06,5.171049490022522e-06,0.09922065393940481,1939.3636589500923,4517.320195321567,10300.00280763445,0.0,0.0,0.0,17.310813131165013,-2.494803965829335,10.39631504577548,0.0,0.0,0.0,-2.494803965829335,23.130927581318254,3.8472563965372464,0.0,0.0,0.0,10.39631504577548,3.8472563965372464,8.02419070192233,0.0,0.0,0.0,0.0,0.0,0.0,0.0,0.0,0.0,0.0,0.0,0.0,0.0,0.0,0.0,0.0,0.0,0.0,0.0,0.0,0.0
1403715889834058000,5376,1403715889834058000,world,odom,455367.8142986323,531636.606827515,-344686.48734915035,-0.15372684185683144,0.248361338228988,0.24263939833621065,0.9251004411094359,23.51637812964314,-2.8791171124723625,12.5767344951553,-0.3462062603942673,-1.1094259970200757,-0.8740557038960626,-2.8791171124723625,30.542599520678447,4.494899293992813,0.5706357153750168,-0.9254321316192438,1.2853413139596663,12.5767344951553,4.494899293992813,11.93531328651833,-0.09114132051986171,-0.9224284451880218,-0.2655788608242707,-0.3462062603942673,0.5706357153750168,-0.09114132051986171,0.10246409355365632,-4.357545180703784e-05,-9.278022488405928e-06,-1.1094259970200757,-0.9254321316192438,-0.9224284451880218,-4.357545180703784e-05,0.10241587510626396,5.469614259514415e-06,-0.8740557038960626,1.2853413139596663,-0.2655788608242707,-9.278022488405928e-06,5.469614259514415e-06,0.1023913488609827,1939.6261973434846,4517.425903049824,10299.117625324816,0.0,0.0,0.0,18.40310053075465,-2.664777475347811,11.06714004733005,0.0,0.0,0.0,-2.664777475347811,24.59729485962061,4.1067339887575525,0.0,0.0,0.0,11.06714004733005,4.1067339887575525,8.532850156565527,0.0,0.0,0.0,0.0,0.0,0.0,0.0,0.0,0.0,0.0,0.0,0.0,0.0,0.0,0.0,0.0,0.0,0.0,0.0,0.0,0.0
1403715889884058000,5377,1403715889884058000,world,odom,455464.8019938012,531862.4807960835,-344171.5541873377,-0.15298942295852497,0.24822504782448498,0.24253008414275767,0.9252879121554852,25.62293340133402,-3.1678312857152555,13.803323792489193,-0.3682835075527801,-1.1808565321765683,-0.9290053214183598,-3.1678312857152555,33.33461074085597,4.94267801000062,0.6072266830333819,-0.9830701927558498,1.3683943887274594,13.803323792489193,4.94267801000062,12.930305940813772,-0.09669840630284648,-0.9823826957170532,-0.2813289264126464,-0.3682835075527801,0.6072266830333819,-0.09669840630284648,0.10568916903450574,-4.6341058661898834e-05,-9.824647959844513e-06,-1.1808565321765683,-0.9830701927558498,-0.9823826957170532,-4.6341058661898834e-05,0.10563788264008568,5.7916186635626545e-06,-0.9290053214183598,1.3683943887274594,-0.2813289264126464,-9.824647959844513e-06,5.7916186635626545e-06,0.10561179118744951,1939.8930013462343,4517.532768493176,10298.23077092874,0.0,0.0,0.0,19.552691688054352,-2.845651897350483,11.7773077930839,0.0,0.0,0.0,-2.845651897350483,26.145582093300348,4.381122699863868,0.0,0.0,0.0,11.7773077930839,4.381122699863868,9.074393708087083,0.0,0.0,0.0,0.0,0.0,0.0,0.0,0.0,0.0,0.0,0.0,0.0,0.0,0.0,0.0,0.0,0.0,0.0,0.0,0.0,0.0
1403715889934058000,5378,1403715889934058000,world,odom,455561.80298197974,532088.3601392702,-343656.6653497962,-0.15255508134073315,0.24795365155610874,0.24253163686076679,0.9254319742470275,27.89129282850284,-3.4805988649159376,15.128034785411725,-0.39155124684538334,-1.2549912482695644,-0.9873059322504351,-3.4805988649159376,36.34326780973338,5.427400829708276,0.6456860201012926,-1.0443394982267447,1.4546299144635273,15.128034785411725,5.427400829708276,14.000315738775791,-0.10256199067989782,-1.0450347114108713,-0.29843815888575476,-0.39155124684538334,0.6456860201012926,-0.10256199067989782,0.10896419136006047,-4.922386026080695e-05,-1.0433327471447377e-05,-1.2549912482695644,-1.0443394982267447,-1.0450347114108713,-4.922386026080695e-05,0.10890966082811697,6.147919514849075e-06,-0.9873059322504351,1.4546299144635273,-0.29843815888575476,-1.0433327471447377e-05,6.147919514849075e-06,0.10888195887000347,1940.1534751807062,4517.6456676046855,10297.344025428336,0.0,0.0,0.0,20.760448874507123,-3.0387195415441015,12.511874627736248,0.0,0.0,0.0,-3.0387195415441015,27.754457890573622,4.677402414418998,0.0,0.0,0.0,12.511874627736248,4.677402414418998,9.634100499218851,0.0,0.0,0.0,0.0,0.0,0.0,0.0,0.0,0.0,0.0,0.0,0.0,0.0,0.0,0.0,0.0,0.0,0.0,0.0,0.0,0.0
1403715889984058000,5379,1403715889984058000,world,odom,455658.8172484472,532314.244821218,-343141.82085111935,-0.15181579422904035,0.24765609699535857,0.24238799772538983,0.9256708274555852,30.33150048936274,-3.8189545081776517,16.557038324503225,-0.41588688824245856,-1.3333113957599325,-1.047348251777029,-3.8189545081776517,39.58206771656143,5.951414658796303,0.6864508065937505,-1.1072808776488556,1.545465727455602,16.557038324503225,5.951414658796303,15.149989348560878,-0.10855239701067229,-1.1108850631443103,-0.3155487729345253,-0.41588688824245856,0.6864508065937505,-0.10855239701067229,0.11228916682228571,-5.223101053047667e-05,-1.1052071326460802e-05,-1.3333113957599325,-1.1072808776488556,-1.1108850631443103,-5.223101053047667e-05,0.11223121903144602,6.5082738227043055e-06,-1.047348251777029,1.545465727455602,-0.3155487729345253,-1.1052071326460802e-05,6.5082738227043055e-06,0.1122018410474458,1940.4219544457962,4517.7492373769755,10296.456811628024,0.0,0.0,0.0,22.01829736095785,-3.235144103922322,13.292755992255493,0.0,0.0,0.0,-3.235144103922322,29.454558236323393,4.9743745157531425,0.0,0.0,0.0,13.292755992255493,4.9743745157531425,10.2289918116181,0.0,0.0,0.0,0.0,0.0,0.0,0.0,0.0,0.0,0.0,0.0,0.0,0.0,0.0,0.0,0.0,0.0,0.0,0.0,0.0,0.0
1403715890034058000,5380,1403715890034058000,world,odom,455755.84529467754,532540.1359486884,-342627.018188534,-0.15097021395668017,0.24738769847401337,0.24235474165864246,0.9258895724313876,32.95391635686786,-4.184601594976774,18.096823583073025,-0.4417445832854595,-1.4152995232005798,-1.1098288854744407,-4.184601594976774,43.065055403653446,6.5172627783205375,0.7288449730343165,-1.1729160226103634,1.6406725356491063,18.096823583073025,6.5172627783205375,16.38436518498738,-0.11511556668531173,-1.1798517207633838,-0.33315705191256495,-0.4417445832854595,0.7288449730343165,-0.11511556668531173,0.11566404886890312,-5.540777102660924e-05,-1.1671344677813716e-05,-1.4152995232005798,-1.1729160226103634,-1.1798517207633838,-5.540777102660924e-05,0.11560260932183616,6.875124346441357e-06,-1.1098288854744407,1.6406725356491063,-0.33315705191256495,-1.1671344677813716e-05,6.875124346441357e-06,0.11557142402259121,1940.6867011516779,4517.859890496347,10295.571263921434,0.0,0.0,0.0,23.33391331191706,-3.4465641643270906,14.102019920702427,0.0,0.0,0.0,-3.4465641643270906,31.219488177806898,5.295561154660867,0.0,0.0,0.0,14.102019920702427,5.295561154660867,10.849185946795718,0.0,0.0,0.0,0.0,0.0,0.0,0.0,0.0,0.0,0.0,0.0,0.0,0.0,0.0,0.0,0.0,0.0,0.0,0.0,0.0,0.0
1403715890084058000,5381,1403715890084058000,world,odom,455852.8861463478,532766.0314092007,-342112.26226769557,-0.15016047582780612,0.24716437390074716,0.24208800529726407,0.9261506364866411,35.769489242607484,-4.579298878610209,19.75404297732713,-0.46793344787637203,-1.5013387969732603,-1.1749624970121577,-4.579298878610209,46.806800676432715,7.1276460075326,0.7734944567129827,-1.2408581962084684,1.7404514338642383,19.75404297732713,7.1276460075326,17.70850956285489,-0.12133752835807025,-1.2520960494658717,-0.35134314382800824,-0.46793344787637203,0.7734944567129827,-0.12133752835807025,0.11908889373870125,-5.870494026597836e-05,-1.2291443337171734e-05,-1.5013387969732603,-1.2408581962084684,-1.2520960494658717,-5.870494026597836e-05,0.11902371685996159,7.2363197548558446e-06,-1.1749624970121577,1.7404514338642383,-0.35134314382800824,-1.2291443337171734e-05,7.2363197548558446e-06,0.11899067836012488,1940.9514256711304,4517.968591520503,10294.684301947562,0.0,0.0,0.0,24.71148069269941,-3.665815060445782,14.949160812600864,0.0,0.0,0.0,-3.665815060445782,33.06806530768152,5.62913740332343,0.0,0.0,0.0,14.949160812600864,5.62913740332343,11.496124144001172,0.0,0.0,0.0,0.0,0.0,0.0,0.0,0.0,0.0,0.0,0.0,0.0,0.0,0.0,0.0,0.0,0.0,0.0,0.0,0.0,0.0
1403715890134058000,5382,1403715890134058000,world,odom,455949.9403134784,532991.9322551116,-341597.550621557,-0.14928588260028824,0.24690193171245184,0.24207524502405003,0.926365336743263,38.78960029316006,-5.004861431101135,21.535838418688307,-0.49626392178943424,-1.590966827276913,-1.2428496976055414,-5.004861431101135,50.82277542372367,7.785277057944704,0.8198044921379762,-1.3121116346302735,1.8445655660601092,21.535838418688307,7.785277057944704,19.127916947250817,-0.12852005299646277,-1.3275634713394378,-0.37022943666356073,-0.49626392178943424,0.8198044921379762,-0.12852005299646277,0.12256360068875742,-6.218215490774083e-05,-1.2933172395661467e-05,-1.590966827276913,-1.3121116346302735,-1.3275634713394378,-6.218215490774083e-05,0.12249466432429103,7.619769967858214e-06,-1.2428496976055414,1.8445655660601092,-0.37022943666356073,-1.2933172395661467e-05,7.619769967858214e-06,0.12245962438726922,1941.2223418054693,4518.071035833279,10293.801645944914,0.0,0.0,0.0,26.129566650798495,-3.890984508903016,15.839635661423266,0.0,0.0,0.0,-3.890984508903016,34.99753455677961,5.9655290208217036,0.0,0.0,0.0,15.839635661423266,5.9655290208217036,12.180856526628205,0.0,0.0,0.0,0.0,0.0,0.0,0.0,0.0,0.0,0.0,0.0,0.0,0.0,0.0,0.0,0.0,0.0,0.0,0.0,0.0,0.0
1403715890184058000,5383,1403715890184058000,world,odom,456047.0078331133,533217.8385068958,-341082.88324220816,-0.1483833238166134,0.2467440610181972,0.24169187566085273,0.926652467112089,42.02617369759904,-5.463239795420236,23.449654711677475,-0.5244035840895028,-1.6853223251278917,-1.3131993152294645,-5.463239795420236,55.12911464851217,8.493077766358216,0.8686121313451789,-1.3851333961590813,1.9539565712973537,23.449654711677475,8.493077766358216,20.648349590333382,-0.13496848815829005,-1.4066395613260507,-0.38940709732208656,-0.5244035840895028,0.8686121313451789,-0.13496848815829005,0.12608831520870356,-6.5780314055657e-05,-1.356573250320725e-05,-1.6853223251278917,-1.3851333961590813,-1.4066395613260507,-6.5780314055657e-05,0.12601527632611914,7.986557531651503e-06,-1.3131993152294645,1.9539565712973537,-0.38940709732208656,-1.356573250320725e-05,7.986557531651503e-06,0.1259782097081379,1941.4910879884358,4518.175934992556,10292.91705203106,0.0,0.0,0.0,27.617886890083337,-4.127997129049802,16.76765676543691,0.0,0.0,0.0,-4.127997129049802,37.01289984631276,6.32179206388494,0.0,0.0,0.0,16.76765676543691,6.32179206388494,12.893188736952979,0.0,0.0,0.0,0.0,0.0,0.0,0.0,0.0,0.0,0.0,0.0,0.0,0.0,0.0,0.0,0.0,0.0,0.0,0.0,0.0,0.0
1403715890234058000,5384,1403715890234058000,world,odom,456144.0886682611,533443.7501731633,-340568.2600802218,-0.1477489888535482,0.24654906317317132,0.241501309060387,0.9268553897255523,45.49145795298197,-5.956423951755346,25.50305181521152,-0.5540897560667959,-1.7828230366773652,-1.3875787407347029,-5.956423951755346,59.742274845885674,9.254059664229537,0.9191239943663219,-1.46259239252504,2.0672910419286525,25.50305181521152,9.254059664229537,22.27562184299462,-0.14198117432862034,-1.488935829583887,-0.4101888522543104,-0.5540897560667959,0.9191239943663219,-0.14198117432862034,0.12966292966974047,-6.954183025926586e-05,-1.4263065643933491e-05,-1.7828230366773652,-1.46259239252504,-1.488935829583887,-6.954183025926586e-05,0.12958564361138278,8.39364293718396e-06,-1.3875787407347029,2.0672910419286525,-0.4101888522543104,-1.4263065643933491e-05,8.39364293718396e-06,0.1295464567577095,1941.7558797010415,4518.287650279169,10292.032089377035,0.0,0.0,0.0,29.17789523456346,-4.381896801295111,17.728965144060915,0.0,0.0,0.0,-4.381896801295111,39.10660003538377,6.706397715246994,0.0,0.0,0.0,17.728965144060915,6.706397715246994,13.633197732415036,0.0,0.0,0.0,0.0,0.0,0.0,0.0,0.0,0.0,0.0,0.0,0.0,0.0,0.0,0.0,0.0,0.0,0.0,0.0,0.0,0.0
1403715890284058000,5385,1403715890284058000,world,odom,456241.1833396235,533669.6683252712,-340053.6786544922,-0.14688825479671888,0.24606588516284061,0.24143218151787735,0.9271385670380241,49.198291838876166,-6.486527650542343,27.704154585515262,-0.5864536909650686,-1.8847367778459394,-1.4641490530135788,-6.486527650542343,64.67977770711171,10.07134868119183,0.9730499752622668,-1.5428548286673056,2.1851917843387794,27.704154585515262,10.07134868119183,24.01606591856809,-0.14988837373783973,-1.5749021452493945,-0.43124995467425514,-0.5864536909650686,0.9730499752622668,-0.14988837373783973,0.13328740778237838,-7.349575678814943e-05,-1.5052521940538543e-05,-1.8847367778459394,-1.5428548286673056,-1.5749021452493945,-7.349575678814943e-05,0.1332058134274397,8.862614551248544e-06,-1.4641490530135788,2.1851917843387794,-0.43124995467425514,-1.5052521940538543e-05,8.862614551248544e-06,0.13316437322186286,1942.023349523749,4518.39738442849,10291.146879481817,0.0,0.0,0.0,30.802907034881656,-4.645906386681137,18.736503942859894,0.0,0.0,0.0,-4.645906386681137,41.29654951714659,7.104313923879252,0.0,0.0,0.0,18.736503942859894,7.104313923879252,14.409979172439666,0.0,0.0,0.0,0.0,0.0,0.0,0.0,0.0,0.0,0.0,0.0,0.0,0.0,0.0,0.0,0.0,0.0,0.0,0.0,0.0,0.0
1403715890334058000,5386,1403715890334058000,world,odom,456338.2909347064,533895.5908519815,-339539.14391957014,-0.14608238890561445,0.24581415073010315,0.24107993898218114,0.9274242836872535,0.0006251350747443702,-5.758706442476804e-11,2.0199126791173319e-10,-1.9664743931140197e-08,-6.95749337944912e-08,-5.479400441339907e-08,-5.758706442476804e-11,0.000625135184698025,8.64411938391595e-11,3.591139898750993e-08,-5.4184621613839225e-08,8.228949547860204e-08,2.0199126791173319e-10,8.64411938391595e-11,0.0006251349061834157,-2.8868349745543932e-09,-6.181964203133202e-08,-1.3102370197320502e-08,-1.9664743931140197e-08,3.591139898750993e-08,-2.8868349745543932e-09,2.6249996564029634e-05,-2.5741711562755087e-12,-1.0994313722859536e-12,-6.95749337944912e-08,-5.4184621613839225e-08,-6.181964203133202e-08,-2.5741711562755087e-12,2.6249995133550307e-05,9.02983822511799e-13,-5.479400441339907e-08,8.228949547860204e-08,-1.3102370197320502e-08,-1.0994313722859536e-12,9.02983822511799e-13,2.624999323464171e-05,1942.2866596380431,4518.512245330564,10290.260766947442,0.0,0.0,0.0,0.2501511625309383,-2.0526392852176725e-07,7.12926503984794e-07,0.0,0.0,0.0,-2.0526392852176725e-07,0.2501515492731183,3.0789683427911414e-07,0.0,0.0,0.0,7.12926503984794e-07,3.0789683427911414e-07,0.2501505686553615,0.0,0.0,0.0,0.0,0.0,0.0,0.0,0.0,0.0,0.0,0.0,0.0,0.0,0.0,0.0,0.0,0.0,0.0,0.0,0.0,0.0
